sampling_point_id,url,name,lat,lon,easting,northing,status,type,area,distance_to_source_km
NE-40000559,https://environment.data.gov.uk/water-quality/id/sampling-point/NE-40000559.json,WASTE ADHOC - TYNESIDE HOUSE,49.891925,-0.609124,500000,3,open,WASTE SITE - UNSPECIFIED,Northumberland Durham and Tees,555.2738492723366
NE-400A0047,https://environment.data.gov.uk/water-quality/id/sampling-point/NE-400A0047.json,"SCARGILL FARM, NR BARNARD CASTLE",54.490876,-1.922,405150,510620,open,GROUNDWATER - BOREHOLE,Northumberland Durham and Tees,39.39042581117366
NE-400A0137,https://environment.data.gov.uk/water-quality/id/sampling-point/NE-400A0137.json,HURY FARM,54.579316,-2.06076,396170,520460,open,GROUNDWATER - SPRING,Northumberland Durham and Tees,26.265234002611578
NE-400B0164,https://environment.data.gov.uk/water-quality/id/sampling-point/NE-400B0164.json,"HIGH PARK WALL FARM, RABY ESTATE",54.5724,-1.947213,403510,519690,open,GROUNDWATER - BOREHOLE,Northumberland Durham and Tees,31.24792466783859
NE-400B0165,https://environment.data.gov.uk/water-quality/id/sampling-point/NE-400B0165.json,"HIGH HOUSE FARM, STREATLAM PARK",54.577829,-1.874651,408200,520300,open,GROUNDWATER - BOREHOLE,Northumberland Durham and Tees,34.133160211386844
NE-400B0171,https://environment.data.gov.uk/water-quality/id/sampling-point/NE-400B0171.json,BALDERHEAD GROUNDWATER,54.553569,-2.120556,392300,517600,open,GROUNDWATER - WELLS & ADITS,Northumberland Durham and Tees,27.154935287082747
NE-400F0085,https://environment.data.gov.uk/water-quality/id/sampling-point/NE-400F0085.json,NORTH TEES HOSPITAL SS62514,54.581509,-1.343959,442500,520900,closed,GROUNDWATER - BOREHOLE,Northumberland Durham and Tees,63.65693913477055
NE-400H0042,https://environment.data.gov.uk/water-quality/id/sampling-point/NE-400H0042.json,"EAST HOUSE FARM, RABY ESTATE, KINNINVIE",54.606062,-1.924599,404968,523437,open,GROUNDWATER - BOREHOLE,Northumberland Durham and Tees,29.642696318795384
NE-400H0047,https://environment.data.gov.uk/water-quality/id/sampling-point/NE-400H0047.json,"JUBILEE TROUT FARM, REDWORTH",54.60616,-1.654734,422400,523500,closed,GROUNDWATER - BOREHOLE,Northumberland Durham and Tees,44.191374107150395
NE-400H0049,https://environment.data.gov.uk/water-quality/id/sampling-point/NE-400H0049.json,PAGE BANK RAW MINEWATER,54.716135,-1.641118,423217,535742,open,GROUNDWATER - BOREHOLE,Northumberland Durham and Tees,41.122518548545884
NE-400H0053,https://environment.data.gov.uk/water-quality/id/sampling-point/NE-400H0053.json,HORDEN RAW MINEWATER,54.769628,-1.31434,444210,541851,open,GROUNDWATER - BOREHOLE,Northumberland Durham and Tees,61.41865032819568
NE-400H0066,https://environment.data.gov.uk/water-quality/id/sampling-point/NE-400H0066.json,"LOW BUTTERKNOWLE, BISHOP AUCKLAND",54.619959,-1.795542,413300,525000,open,GROUNDWATER - BOREHOLE,Northumberland Durham and Tees,35.4866459467946
NE-400J0002,https://environment.data.gov.uk/water-quality/id/sampling-point/NE-400J0002.json,"WORTS SPRING, NR UPLEATHAM",54.558718,-1.028405,462930,518600,open,GROUNDWATER - BOREHOLE,Northumberland Durham and Tees,83.70220044051784
NE-400J0008,https://environment.data.gov.uk/water-quality/id/sampling-point/NE-400J0008.json,"AYTON WATER COMPANY, GREAT AYTON",54.488295,-1.103093,458200,510700,open,GROUNDWATER - BOREHOLE,Northumberland Durham and Tees,81.97813844280493
NE-400M0001,https://environment.data.gov.uk/water-quality/id/sampling-point/NE-400M0001.json,"HUTTON FIELDS, HUTTON MAGNA",54.500433,-1.794285,413420,511700,open,GROUNDWATER - BOREHOLE,Northumberland Durham and Tees,43.833541037084665
NE-41000075,https://environment.data.gov.uk/water-quality/id/sampling-point/NE-41000075.json,AD HOC SAMPLES IN AREA 210,49.891925,-0.609124,500000,3,open,MISCELLANEOUS ENVIRONMENT - UNSPECIFIED,Northumberland Durham and Tees,555.2738492723366
NE-42100010,https://environment.data.gov.uk/water-quality/id/sampling-point/NE-42100010.json,AD HOC SAMPLES IN AREA 221,49.891925,-0.609124,500000,3,open,MISCELLANEOUS ENVIRONMENT - UNSPECIFIED,Northumberland Durham and Tees,555.2738492723366
NE-42200030,https://environment.data.gov.uk/water-quality/id/sampling-point/NE-42200030.json,AD HOC SAMPLES IN AREA 222,49.891925,-0.609124,500000,3,open,MISCELLANEOUS ENVIRONMENT - UNSPECIFIED,Northumberland Durham and Tees,555.2738492723366
NE-42300075,https://environment.data.gov.uk/water-quality/id/sampling-point/NE-42300075.json,AD HOC SAMPLES IN AREA 223,49.891925,-0.609124,500000,3,open,MISCELLANEOUS ENVIRONMENT - UNSPECIFIED,Northumberland Durham and Tees,555.2738492723366
NE-42400076,https://environment.data.gov.uk/water-quality/id/sampling-point/NE-42400076.json,AD HOC SAMPLES IN AREA 224,49.891925,-0.609124,500000,3,open,MISCELLANEOUS ENVIRONMENT - UNSPECIFIED,Northumberland Durham and Tees,555.2738492723366
NE-42500010,https://environment.data.gov.uk/water-quality/id/sampling-point/NE-42500010.json,AD HOC SAMPLES IN AREA 225,49.891925,-0.609124,500000,3,open,MISCELLANEOUS ENVIRONMENT - UNSPECIFIED,Northumberland Durham and Tees,555.2738492723366
NE-42600349,https://environment.data.gov.uk/water-quality/id/sampling-point/NE-42600349.json,AD HOC SAMPLES IN AREA 226,49.891925,-0.609124,500000,3,open,MISCELLANEOUS ENVIRONMENT - UNSPECIFIED,Northumberland Durham and Tees,555.2738492723366
NE-43100126,https://environment.data.gov.uk/water-quality/id/sampling-point/NE-43100126.json,AD HOC SAMPLES IN AREA 231,49.891925,-0.609124,500000,3,open,MISCELLANEOUS ENVIRONMENT - UNSPECIFIED,Northumberland Durham and Tees,555.2738492723366
NE-43200075,https://environment.data.gov.uk/water-quality/id/sampling-point/NE-43200075.json,GARRIGILL STW,54.773203,-2.408476,373820,542110,open,SEWAGE DISCHARGES - FINAL/TREATED EFFLUENT - WATER COMPANY,Northumberland Durham and Tees,8.816720611363683
NE-43200226,https://environment.data.gov.uk/water-quality/id/sampling-point/NE-43200226.json,AD HOC SAMPLES IN AREA 232,49.891925,-0.609124,500000,3,open,MISCELLANEOUS ENVIRONMENT - UNSPECIFIED,Northumberland Durham and Tees,555.2738492723366
NE-43300159,https://environment.data.gov.uk/water-quality/id/sampling-point/NE-43300159.json,AD HOC SAMPLES IN AREA 233,49.891925,-0.609124,500000,3,open,MISCELLANEOUS ENVIRONMENT - UNSPECIFIED,Northumberland Durham and Tees,555.2738492723366
NE-43400181,https://environment.data.gov.uk/water-quality/id/sampling-point/NE-43400181.json,AD HOC SAMPLES IN AREA 234,49.891925,-0.609124,500000,3,open,MISCELLANEOUS ENVIRONMENT - UNSPECIFIED,Northumberland Durham and Tees,555.2738492723366
NE-43500497,https://environment.data.gov.uk/water-quality/id/sampling-point/NE-43500497.json,AD HOC SAMPLES IN AREA 235,49.891925,-0.609124,500000,3,open,MISCELLANEOUS ENVIRONMENT - UNSPECIFIED,Northumberland Durham and Tees,555.2738492723366
NE-44100007,https://environment.data.gov.uk/water-quality/id/sampling-point/NE-44100007.json,KILLHOPE BURN AT COWSHILL,54.759611,-2.228857,385370,540545,open,FRESHWATER - RIVERS,Northumberland Durham and Tees,3.6805519300469327
NE-44100016,https://environment.data.gov.uk/water-quality/id/sampling-point/NE-44100016.json,WEAR AT WEST MILLS DAM,54.661153,-1.692713,419920,529608,open,FRESHWATER - RIVERS,Northumberland Durham and Tees,39.525087885145176
NE-44100018,https://environment.data.gov.uk/water-quality/id/sampling-point/NE-44100018.json,WEAR AT WOLSINGHAM,54.726569,-1.885916,407445,536850,open,FRESHWATER - RIVERS,Northumberland Durham and Tees,25.50436539605573
NE-44100023,https://environment.data.gov.uk/water-quality/id/sampling-point/NE-44100023.json,WEAR AT STANHOPE,54.74765,-2.015728,399085,539190,closed,FRESHWATER - RIVERS,Northumberland Durham and Tees,16.8534981074528
NE-44100027,https://environment.data.gov.uk/water-quality/id/sampling-point/NE-44100027.json,WEAR AT EASTGATE,54.740892,-2.068147,395710,538440,open,FRESHWATER - RIVERS,Northumberland Durham and Tees,13.825363767648335
NE-44100032,https://environment.data.gov.uk/water-quality/id/sampling-point/NE-44100032.json,LOW WADSWORTH STW FINAL EFFLUENT,54.673294,-1.726736,417720,530950,open,SEWAGE DISCHARGES - FINAL/TREATED EFFLUENT - WATER COMPANY,Northumberland Durham and Tees,37.010793710304405
NE-44100063,https://environment.data.gov.uk/water-quality/id/sampling-point/NE-44100063.json,STANHOPE STW FINAL EFFLUENT,54.736732,-1.991419,400650,537975,open,SEWAGE DISCHARGES - FINAL/TREATED EFFLUENT - WATER COMPANY,Northumberland Durham and Tees,18.666182170899674
NE-44100071,https://environment.data.gov.uk/water-quality/id/sampling-point/NE-44100071.json,WESTERN AREA STW FINAL EFFLUENT,54.735998,-2.121098,392300,537900,open,SEWAGE DISCHARGES - FINAL/TREATED EFFLUENT - WATER COMPANY,Northumberland Durham and Tees,10.915672780090453
NE-44100089,https://environment.data.gov.uk/water-quality/id/sampling-point/NE-44100089.json,ROOKHOPE BURN AT ROOKHOPE VILLAGE,54.780367,-2.098609,393755,542835,open,FRESHWATER - RIVERS,Northumberland Durham and Tees,11.10497038161059
NE-44100119,https://environment.data.gov.uk/water-quality/id/sampling-point/NE-44100119.json,TUNSTALL RESERVOIR NEAR DAM WALL WEST,54.762431,-1.902397,406378,540839,open,FRESHWATER - LAKES/PONDS/RESERVOIRS,Northumberland Durham and Tees,23.787302829282346
NE-44100150,https://environment.data.gov.uk/water-quality/id/sampling-point/NE-44100150.json,HAMSTERLEY STW FINAL EFFLUENT,54.671077,-1.81335,412135,530685,open,SEWAGE DISCHARGES - FINAL/TREATED EFFLUENT - WATER COMPANY,Northumberland Durham and Tees,31.89822431707118
NE-44100157,https://environment.data.gov.uk/water-quality/id/sampling-point/NE-44100157.json,FIR TREE STW FINAL EFFLUENT,54.702625,-1.78892,413700,534200,open,SEWAGE DISCHARGES - FINAL/TREATED EFFLUENT - WATER COMPANY,Northumberland Durham and Tees,32.21272295671968
NE-44100163,https://environment.data.gov.uk/water-quality/id/sampling-point/NE-44100163.json,WOLSINGHAM STW FINAL EFFLUENT,54.717084,-1.841624,410300,535800,open,SEWAGE DISCHARGES - FINAL/TREATED EFFLUENT - WATER COMPANY,Northumberland Durham and Tees,28.52171894654252
NE-44100166,https://environment.data.gov.uk/water-quality/id/sampling-point/NE-44100166.json,TOW LAW STW FINAL EFFLUENT,54.741412,-1.823667,411450,538510,open,SEWAGE DISCHARGES - FINAL/TREATED EFFLUENT - WATER COMPANY,Northumberland Durham and Tees,29.093977876604797
NE-44100171,https://environment.data.gov.uk/water-quality/id/sampling-point/NE-44100171.json,ROOKHOPE STW FINAL EFFLUENT,54.771431,-2.090738,394260,541840,open,SEWAGE DISCHARGES - FINAL/TREATED EFFLUENT - WATER COMPANY,Northumberland Durham and Tees,11.664937380660978
NE-44100198,https://environment.data.gov.uk/water-quality/id/sampling-point/NE-44100198.json,WEAR DOWNSTREAM OF BROADWOOD QUARRY,54.726926,-1.946703,403530,536885,open,FRESHWATER - RIVERS,Northumberland Durham and Tees,21.726516485382884
NE-44100221,https://environment.data.gov.uk/water-quality/id/sampling-point/NE-44100221.json,WEAR AT WEST BLACKDENE,54.744072,-2.205018,386899,538811,open,FRESHWATER - RIVERS,Northumberland Durham and Tees,5.97817412539943
NE-44100241,https://environment.data.gov.uk/water-quality/id/sampling-point/NE-44100241.json,BURNHOPE RESERVOIR,54.747365,-2.241759,384535,539185,open,FRESHWATER - LAKES/PONDS/RESERVOIRS,Northumberland Durham and Tees,4.264409785836939
NE-44100242,https://environment.data.gov.uk/water-quality/id/sampling-point/NE-44100242.json,WASKERLEY BECK AT WOLSINGHAM,54.731957,-1.881165,407750,537450,open,FRESHWATER - RIVERS,Northumberland Durham and Tees,25.66335252095466
NE-44100243,https://environment.data.gov.uk/water-quality/id/sampling-point/NE-44100243.json,HOUSELOP BECK AT A689 (AKA BRADLEY BECK),54.720169,-1.837358,410574,536144,open,FRESHWATER - RIVERS,Northumberland Durham and Tees,28.70220530474782
NE-44100244,https://environment.data.gov.uk/water-quality/id/sampling-point/NE-44100244.json,BEDBURN BECK AT HOWLEA BRIDGE,54.682559,-1.829583,411085,531960,open,FRESHWATER - RIVERS,Northumberland Durham and Tees,30.45063613100928
NE-44100245,https://environment.data.gov.uk/water-quality/id/sampling-point/NE-44100245.json,LINBURN BECK AT WITTON CASTLE,54.664403,-1.772995,414740,529950,open,FRESHWATER - RIVERS,Northumberland Durham and Tees,34.57927804874748
NE-44100247,https://environment.data.gov.uk/water-quality/id/sampling-point/NE-44100247.json,BOLLIHOPE BURN AT WHITE KIRKLEY,54.718708,-1.960452,402645,535970,open,FRESHWATER - RIVERS,Northumberland Durham and Tees,21.16689774419881
NE-44100248,https://environment.data.gov.uk/water-quality/id/sampling-point/NE-44100248.json,STANHOPE BURN AT STANHOPE,54.748872,-2.016863,399012,539326,open,FRESHWATER - RIVERS,Northumberland Durham and Tees,16.752272516520534
NE-44100257,https://environment.data.gov.uk/water-quality/id/sampling-point/NE-44100257.json,AD HOC SAMPLES IN AREA 241,49.891925,-0.609124,500000,3,open,MISCELLANEOUS ENVIRONMENT - UNSPECIFIED,Northumberland Durham and Tees,555.2738492723366
NE-44100325,https://environment.data.gov.uk/water-quality/id/sampling-point/NE-44100325.json,ROOKHOPE BURN U/S FRAZERS GROVE LAGOONS,54.779571,-2.132111,391600,542750,closed,FRESHWATER - RIVERS,Northumberland Durham and Tees,8.958666957976511
NE-44100337,https://environment.data.gov.uk/water-quality/id/sampling-point/NE-44100337.json,WESTERN AREA STW - WHEN FLOWS > 8.3L/S,54.735998,-2.121098,392300,537900,open,SEWAGE DISCHARGES - FINAL/TREATED EFFLUENT - WATER COMPANY,Northumberland Durham and Tees,10.915672780090453
NE-44100338,https://environment.data.gov.uk/water-quality/id/sampling-point/NE-44100338.json,ROOKHOPE STW - FLOW EXCEEDS 2.1 L/S,54.771431,-2.090738,394260,541840,open,SEWAGE DISCHARGES - FINAL/TREATED EFFLUENT - WATER COMPANY,Northumberland Durham and Tees,11.664937380660978
NE-44100343,https://environment.data.gov.uk/water-quality/id/sampling-point/NE-44100343.json,WOLSINGHAM STW WHEN FLOW > 20 L/S,54.716993,-1.841314,410320,535790,open,SEWAGE DISCHARGES - STW STORM OVERFLOW/STORM TANK - WATER COMPANY,Northumberland Durham and Tees,28.54354924570833
NE-44100344,https://environment.data.gov.uk/water-quality/id/sampling-point/NE-44100344.json,FROSTERLEY STW WHEN FLOW > 5.2 L/S,54.727144,-1.933039,404410,536910,open,SEWAGE DISCHARGES - FINAL/TREATED EFFLUENT - WATER COMPANY,Northumberland Durham and Tees,22.56307219595885
NE-44100347,https://environment.data.gov.uk/water-quality/id/sampling-point/NE-44100347.json,WEAR VALLEY WTW - WASHWATER CLARIFIER,54.747784,-2.234227,385020,539230,open,TRADE DISCHARGES - PROCESS EFFLUENT - WATER COMPANY (WTW),Northumberland Durham and Tees,4.46393818663243
NE-44100350,https://environment.data.gov.uk/water-quality/id/sampling-point/NE-44100350.json,LOW WADSWORTH STW CRUDE INLET,54.674642,-1.726416,417740,531100,open,SEWAGE - CRUDE TO FURTHER TREATMENT - WATER COMPANY,Northumberland Durham and Tees,36.98120374999015
NE-44100352,https://environment.data.gov.uk/water-quality/id/sampling-point/NE-44100352.json,WOLSINGHAM STW CRUDE INLET,54.717624,-1.842243,410260,535860,open,SEWAGE - CRUDE TO FURTHER TREATMENT - WATER COMPANY,Northumberland Durham and Tees,28.46803394439289
NE-44100356,https://environment.data.gov.uk/water-quality/id/sampling-point/NE-44100356.json,WELLHOPE BURN (H),54.769206,-2.257433,383535,541619,closed,FRESHWATER - UNSPECIFIED,Northumberland Durham and Tees,1.6553189863542934
NE-44100357,https://environment.data.gov.uk/water-quality/id/sampling-point/NE-44100357.json,KILLHOPE BURN N OF WEST FALL (WEARHEAD(M,54.753616,-2.224752,385632,539877,open,FRESHWATER - RIVERS,Northumberland Durham and Tees,4.332276913208361
NE-44100358,https://environment.data.gov.uk/water-quality/id/sampling-point/NE-44100358.json,SEDLING BURN U/S OF BURTREE PASTURE (K),54.760797,-2.224481,385652,540676,open,FRESHWATER - UNSPECIFIED,Northumberland Durham and Tees,3.813543275437697
NE-44100359,https://environment.data.gov.uk/water-quality/id/sampling-point/NE-44100359.json,SEDLING BURN AT CULVERT ISSUE (L),54.760274,-2.225395,385593,540618,closed,FRESHWATER - UNSPECIFIED,Northumberland Durham and Tees,3.803058871828591
NE-44100363,https://environment.data.gov.uk/water-quality/id/sampling-point/NE-44100363.json,KILLHOPE BURN AT KILLHOPEBURN BRIDGE (G),54.770248,-2.257408,383537,541735,open,FRESHWATER - UNSPECIFIED,Northumberland Durham and Tees,1.5612374434077223
NE-44100365,https://environment.data.gov.uk/water-quality/id/sampling-point/NE-44100365.json,KILLHOPE BURN AT COWSHILL (I),54.759602,-2.228919,385366,540544,closed,FRESHWATER - UNSPECIFIED,Northumberland Durham and Tees,3.678243987322626
NE-44100366,https://environment.data.gov.uk/water-quality/id/sampling-point/NE-44100366.json,COWHORSE LEVEL DISCHARGE (F),54.774099,-2.259314,383416,542164,closed,MINEWATER,Northumberland Durham and Tees,1.1536516765784375
NE-44100367,https://environment.data.gov.uk/water-quality/id/sampling-point/NE-44100367.json,BURTREE PASTURE DISCHARGE (J),54.760626,-2.224496,385651,540657,open,MINEWATER,Northumberland Durham and Tees,3.824340608136548
NE-44200015,https://environment.data.gov.uk/water-quality/id/sampling-point/NE-44200015.json,GAUNLESS AT WEST AUCKLAND,54.634495,-1.717003,418365,526635,open,FRESHWATER - RIVERS,Northumberland Durham and Tees,39.212986018767644
NE-44200024,https://environment.data.gov.uk/water-quality/id/sampling-point/NE-44200024.json,RAMSHAW STW FINAL EFFLUENT,54.628438,-1.763436,415370,525950,open,SEWAGE DISCHARGES - FINAL/TREATED EFFLUENT - WATER COMPANY,Northumberland Durham and Tees,36.8318061091696
NE-44200028,https://environment.data.gov.uk/water-quality/id/sampling-point/NE-44200028.json,COCKFIELD STW FINAL EFFLUENT,54.618157,-1.792454,413500,524800,open,SEWAGE DISCHARGES - FINAL/TREATED EFFLUENT - WATER COMPANY,Northumberland Durham and Tees,35.75987119589222
NE-44200032,https://environment.data.gov.uk/water-quality/id/sampling-point/NE-44200032.json,BUTTERKNOWLE (LYNESACK & SOFTLEY) STW,54.624765,-1.822467,411560,525530,open,SEWAGE DISCHARGES - FINAL/TREATED EFFLUENT - WATER COMPANY,Northumberland Durham and Tees,33.72535288855378
NE-44200038,https://environment.data.gov.uk/water-quality/id/sampling-point/NE-44200038.json,NEW MOORS STW FINAL EFFLUENT,54.610869,-1.741398,416800,524000,open,SEWAGE DISCHARGES - FINAL/TREATED EFFLUENT - WATER COMPANY,Northumberland Durham and Tees,39.01180544214055
NE-44200088,https://environment.data.gov.uk/water-quality/id/sampling-point/NE-44200088.json,HUMMER BECK AT HUMMERBECK BRIDGE,54.623739,-1.710263,418805,525440,open,FRESHWATER - RIVERS,Northumberland Durham and Tees,40.1198995797273
NE-44300004,https://environment.data.gov.uk/water-quality/id/sampling-point/NE-44300004.json,WEAR AT SUNDERLAND BRIDGE,54.733972,-1.589666,426520,537745,open,FRESHWATER - RIVERS,Northumberland Durham and Tees,44.08485313450748
NE-44300006,https://environment.data.gov.uk/water-quality/id/sampling-point/NE-44300006.json,WEAR AT WILLINGTON,54.703503,-1.677542,420877,534325,open,FRESHWATER - RIVERS,Northumberland Durham and Tees,39.117482497138795
NE-44300009,https://environment.data.gov.uk/water-quality/id/sampling-point/NE-44300009.json,SUNDERLAND BRIDGE (OLD) STW FINAL EFF,54.73308,-1.591694,426390,537645,open,SEWAGE DISCHARGES - FINAL/TREATED EFFLUENT - WATER COMPANY,Northumberland Durham and Tees,43.968209751574236
NE-44300013,https://environment.data.gov.uk/water-quality/id/sampling-point/NE-44300013.json,SUNDERLAND BRIDGE (NEW) STW FINAL EFF,54.732678,-1.592164,426360,537600,open,SEWAGE DISCHARGES - FINAL/TREATED EFFLUENT - WATER COMPANY,Northumberland Durham and Tees,43.94400508957433
NE-44300021,https://environment.data.gov.uk/water-quality/id/sampling-point/NE-44300021.json,WILLINGTON STW FINAL EFFLUENT,54.70516,-1.675155,421030,534510,open,SEWAGE DISCHARGES - FINAL/TREATED EFFLUENT - WATER COMPANY,Northumberland Durham and Tees,39.225797614767906
NE-44300025,https://environment.data.gov.uk/water-quality/id/sampling-point/NE-44300025.json,NEWFIELD CHALLIES ST STW FINAL EFFLUENT,54.695853,-1.690124,420070,533470,open,SEWAGE DISCHARGES - FINAL/TREATED EFFLUENT - WATER COMPANY,Northumberland Durham and Tees,38.535448400471296
NE-44300028,https://environment.data.gov.uk/water-quality/id/sampling-point/NE-44300028.json,VINOVIUM STW FINAL EFF (BISHOP AUCKLAND),54.680246,-1.684194,420460,531735,open,SEWAGE DISCHARGES - FINAL/TREATED EFFLUENT - WATER COMPANY,Northumberland Durham and Tees,39.37255855160989
NE-44300030,https://environment.data.gov.uk/water-quality/id/sampling-point/NE-44300030.json,CROXDALE BECK AT CROXDALE HALL,54.735349,-1.579589,427168,537902,open,FRESHWATER - RIVERS,Northumberland Durham and Tees,44.70819096236882
NE-44300056,https://environment.data.gov.uk/water-quality/id/sampling-point/NE-44300056.json,KELLOE (EAST HETTON) STW,54.717042,-1.47543,433890,535910,open,SEWAGE DISCHARGES - FINAL/TREATED EFFLUENT - WATER COMPANY,Northumberland Durham and Tees,51.60758398830955
NE-44300075,https://environment.data.gov.uk/water-quality/id/sampling-point/NE-44300075.json,GAUNLESS UPSTREAM OF RIVER WEAR,54.670941,-1.669365,421421,530704,open,FRESHWATER - RIVERS,Northumberland Durham and Tees,40.59154537005016
NE-44300090,https://environment.data.gov.uk/water-quality/id/sampling-point/NE-44300090.json,TUDHOE MILL STW FINAL EFFLUENT,54.71442,-1.615087,424895,535560,open,SEWAGE DISCHARGES - FINAL/TREATED EFFLUENT - WATER COMPANY,Northumberland Durham and Tees,42.80149620611746
NE-44300116,https://environment.data.gov.uk/water-quality/id/sampling-point/NE-44300116.json,VALLEY BURN U/S RIVER WEAR,54.717149,-1.625695,424210,535860,open,FRESHWATER - RIVERS,Northumberland Durham and Tees,42.07720001203442
NE-44300126,https://environment.data.gov.uk/water-quality/id/sampling-point/NE-44300126.json,AD HOC SAMPLES IN AREA 243,49.891925,-0.609124,500000,3,open,MISCELLANEOUS ENVIRONMENT - UNSPECIFIED,Northumberland Durham and Tees,555.2738492723366
NE-44300233,https://environment.data.gov.uk/water-quality/id/sampling-point/NE-44300233.json,COXHOE QUARRY AGGREGATE WASH SETTLEMENT,54.711242,-1.464485,434600,535270,open,TRADE DISCHARGES - PROCESS EFFLUENT - NOT WATER COMPANY,Northumberland Durham and Tees,52.39930702761476
NE-44300234,https://environment.data.gov.uk/water-quality/id/sampling-point/NE-44300234.json,VINOVIUM STW CRUDE INLET,54.677318,-1.681425,420640,531410,open,SEWAGE - CRUDE TO FURTHER TREATMENT - WATER COMPANY,Northumberland Durham and Tees,39.6382538720218
NE-44300235,https://environment.data.gov.uk/water-quality/id/sampling-point/NE-44300235.json,TUDHOE MILL STW CRUDE INLET,54.715849,-1.612202,425080,535720,open,SEWAGE - CRUDE TO FURTHER TREATMENT - WATER COMPANY,Northumberland Durham and Tees,42.95576299744202
NE-44300238,https://environment.data.gov.uk/water-quality/id/sampling-point/NE-44300238.json,WILLINGTON STW CRUDE INLET,54.617009,-1.678489,420860,524700,open,SEWAGE - CRUDE TO FURTHER TREATMENT - WATER COMPANY,Northumberland Durham and Tees,42.28645527523562
NE-44300239,https://environment.data.gov.uk/water-quality/id/sampling-point/NE-44300239.json,BOWBURN STW CRUDE INLET,54.727249,-1.532283,430220,537020,open,SEWAGE - CRUDE TO FURTHER TREATMENT - WATER COMPANY,Northumberland Durham and Tees,47.83466405893127
NE-44300240,https://environment.data.gov.uk/water-quality/id/sampling-point/NE-44300240.json,BOWBURN STW FINAL EFFLUENT,54.726538,-1.534155,430100,536940,open,SEWAGE DISCHARGES - FINAL/TREATED EFFLUENT - WATER COMPANY,Northumberland Durham and Tees,47.725993620206246
NE-44300242,https://environment.data.gov.uk/water-quality/id/sampling-point/NE-44300242.json,KELLOE (EAST HETTON) STW CRUDE INLET,54.716947,-1.474345,433960,535900,open,SEWAGE - CRUDE TO FURTHER TREATMENT - WATER COMPANY,Northumberland Durham and Tees,51.67806639625674
NE-44300243,https://environment.data.gov.uk/water-quality/id/sampling-point/NE-44300243.json,BRANCEPETH (NEW) STW,54.732144,-1.651646,422530,537520,open,SEWAGE DISCHARGES - FINAL/TREATED EFFLUENT - WATER COMPANY,Northumberland Durham and Tees,40.16788415252461
NE-44300245,https://environment.data.gov.uk/water-quality/id/sampling-point/NE-44300245.json,WEAR U/S WILLINGTON STW OUTFALL,54.704529,-1.674461,421075,534440,open,FRESHWATER - RIVERS,Northumberland Durham and Tees,39.28482032620484
NE-44300246,https://environment.data.gov.uk/water-quality/id/sampling-point/NE-44300246.json,WEAR U/S WILLINGTON STW OUTFALL SED <63U,54.704538,-1.674461,421075,534441,closed,FRESHWATER - RIVERS,Northumberland Durham and Tees,39.28459791584527
NE-443F0138,https://environment.data.gov.uk/water-quality/id/sampling-point/NE-443F0138.json,BANKDAM FARM 24-3-511,54.740507,-1.435721,436427,538541,open,GROUNDWATER - BOREHOLE,Northumberland Durham and Tees,53.83306378860846
NE-44400007,https://environment.data.gov.uk/water-quality/id/sampling-point/NE-44400007.json,BROWNEY AT A167,54.738234,-1.587526,426655,538220,open,FRESHWATER - RIVERS,Northumberland Durham and Tees,44.164641920839145
NE-44400011,https://environment.data.gov.uk/water-quality/id/sampling-point/NE-44400011.json,DEERNESS AT A690,54.762781,-1.605382,425490,540945,open,FRESHWATER - RIVERS,Northumberland Durham and Tees,42.79331546309824
NE-44400025,https://environment.data.gov.uk/water-quality/id/sampling-point/NE-44400025.json,BROWNEY STW FINAL EFFLUENT,54.741693,-1.600772,425800,538600,open,SEWAGE DISCHARGES - FINAL/TREATED EFFLUENT - WATER COMPANY,Northumberland Durham and Tees,43.27702687261407
NE-44400067,https://environment.data.gov.uk/water-quality/id/sampling-point/NE-44400067.json,ESH WINNING STW FINAL EFFLUENT,54.774484,-1.689679,420060,542220,open,SEWAGE DISCHARGES - FINAL/TREATED EFFLUENT - WATER COMPANY,Northumberland Durham and Tees,37.33836001698756
NE-44400163,https://environment.data.gov.uk/water-quality/id/sampling-point/NE-44400163.json,DEERNESS U/S PRIEST BURN,54.774308,-1.687659,420190,542201,open,FRESHWATER - RIVERS,Northumberland Durham and Tees,37.46837400602121
NE-44400203,https://environment.data.gov.uk/water-quality/id/sampling-point/NE-44400203.json,ALDIN GRANGE SOUTH STW,54.780379,-1.614384,424900,542900,open,SEWAGE DISCHARGES - FINAL/TREATED EFFLUENT - WATER COMPANY,Northumberland Durham and Tees,42.15586160214049
NE-44400212,https://environment.data.gov.uk/water-quality/id/sampling-point/NE-44400212.json,BROWNEY STW CRUDE INLET,54.742144,-1.601389,425760,538650,open,SEWAGE - CRUDE TO FURTHER TREATMENT - WATER COMPANY,Northumberland Durham and Tees,43.23229673984003
NE-44400259,https://environment.data.gov.uk/water-quality/id/sampling-point/NE-44400259.json,ESH WINNING CRUDE INLET,54.775296,-1.691072,419970,542310,open,SEWAGE - CRUDE TO FURTHER TREATMENT - WATER COMPANY,Northumberland Durham and Tees,37.24686783393469
NE-44500064,https://environment.data.gov.uk/water-quality/id/sampling-point/NE-44500064.json,WEAR AT SHINCLIFFE BRIDGE,54.76346,-1.554867,428740,541040,open,FRESHWATER - RIVERS,Northumberland Durham and Tees,46.02598019041884
NE-44500133,https://environment.data.gov.uk/water-quality/id/sampling-point/NE-44500133.json,OLD DURHAM BECK ABOVE RIVER WEAR CONF,54.766732,-1.552577,428885,541405,open,FRESHWATER - RIVERS,Northumberland Durham and Tees,46.156404840677425
NE-44500179,https://environment.data.gov.uk/water-quality/id/sampling-point/NE-44500179.json,SHERBURN STW,54.770338,-1.508937,431690,541825,open,SEWAGE DISCHARGES - FINAL/TREATED EFFLUENT - WATER COMPANY,Northumberland Durham and Tees,48.93956215690674
NE-44500189,https://environment.data.gov.uk/water-quality/id/sampling-point/NE-44500189.json,CASSOP STW,54.739121,-1.468932,434290,538370,open,SEWAGE DISCHARGES - FINAL/TREATED EFFLUENT - WATER COMPANY,Northumberland Durham and Tees,51.72506405077307
NE-44500193,https://environment.data.gov.uk/water-quality/id/sampling-point/NE-44500193.json,DURHAM COLLEGES STW,54.755987,-1.57577,427400,540200,open,SEWAGE DISCHARGES - FINAL/TREATED EFFLUENT - WATER COMPANY,Northumberland Durham and Tees,44.73589828226087
NE-44500231,https://environment.data.gov.uk/water-quality/id/sampling-point/NE-44500231.json,WEAR U/S BARKERS HAUGH STW,54.77994,-1.576919,427310,542865,open,FRESHWATER - RIVERS,Northumberland Durham and Tees,44.55873715986272
NE-44500393,https://environment.data.gov.uk/water-quality/id/sampling-point/NE-44500393.json,AD HOC SAMPLES IN AREA 245,49.891925,-0.609124,500000,3,open,FRESHWATER - UNSPECIFIED,Northumberland Durham and Tees,555.2738492723366
NE-44500556,https://environment.data.gov.uk/water-quality/id/sampling-point/NE-44500556.json,SHERBURN STW CRUDE INLET,54.770385,-1.509403,431660,541830,open,SEWAGE - CRUDE TO FURTHER TREATMENT - WATER COMPANY,Northumberland Durham and Tees,48.9095239619911
NE-445F0397,https://environment.data.gov.uk/water-quality/id/sampling-point/NE-445F0397.json,BOREHOLE 24-5-72 HASWELL MOOR FARM,54.777041,-1.44807,435600,542600,closed,GROUNDWATER - BOREHOLE,Northumberland Durham and Tees,52.825230652343116
NE-45100005,https://environment.data.gov.uk/water-quality/id/sampling-point/NE-45100005.json,HARWOOD BECK D/S LANGDON BECK,54.666874,-2.226784,385470,530225,open,FRESHWATER - RIVERS,Northumberland Durham and Tees,13.07831078392612
NE-45100009,https://environment.data.gov.uk/water-quality/id/sampling-point/NE-45100009.json,EGGLESTONE STW,54.605842,-2.009867,399460,523410,open,SEWAGE DISCHARGES - FINAL/TREATED EFFLUENT - WATER COMPANY,Northumberland Durham and Tees,25.790744690475787
NE-45100012,https://environment.data.gov.uk/water-quality/id/sampling-point/NE-45100012.json,MICKLETON STW,54.610418,-2.042537,397350,523920,open,SEWAGE DISCHARGES - FINAL/TREATED EFFLUENT - WATER COMPANY,Northumberland Durham and Tees,24.067489337918282
NE-45100015,https://environment.data.gov.uk/water-quality/id/sampling-point/NE-45100015.json,MIDDLETON IN TEESDALE STW,54.619209,-2.075841,395200,524900,open,SEWAGE DISCHARGES - FINAL/TREATED EFFLUENT - WATER COMPANY,Northumberland Durham and Tees,22.010999193946414
NE-45100031,https://environment.data.gov.uk/water-quality/id/sampling-point/NE-45100031.json,COTHERSTONE STW (BELOW 4.48 L/S),54.575107,-1.990678,400700,519990,open,SEWAGE DISCHARGES - FINAL/TREATED EFFLUENT - WATER COMPANY,Northumberland Durham and Tees,29.217996687289297
NE-45100034,https://environment.data.gov.uk/water-quality/id/sampling-point/NE-45100034.json,ROMALDKIRK STW,54.596227,-2.003519,399870,522340,open,SEWAGE DISCHARGES - FINAL/TREATED EFFLUENT - WATER COMPANY,Northumberland Durham and Tees,26.87118084230438
NE-45100036,https://environment.data.gov.uk/water-quality/id/sampling-point/NE-45100036.json,TEES AT HOLWICK HEAD,54.649681,-2.173547,388899,528302,open,FRESHWATER - RIVERS,Northumberland Durham and Tees,15.96632163245193
NE-45100054,https://environment.data.gov.uk/water-quality/id/sampling-point/NE-45100054.json,COW GREEN RESERVOIR,54.655864,-2.290582,381350,529015,open,FRESHWATER - LAKES/PONDS/RESERVOIRS,Northumberland Durham and Tees,14.031656108250239
NE-45100074,https://environment.data.gov.uk/water-quality/id/sampling-point/NE-45100074.json,GRETA AT GRETA BRIDGE,54.513612,-1.868669,408600,513155,open,FRESHWATER - RIVERS,Northumberland Durham and Tees,39.50274611830358
NE-45100075,https://environment.data.gov.uk/water-quality/id/sampling-point/NE-45100075.json,TEES AT EGGLESTONE ABBEY,54.527527,-1.889808,407229,514701,open,FRESHWATER - RIVERS,Northumberland Durham and Tees,37.43999006336402
NE-45100080,https://environment.data.gov.uk/water-quality/id/sampling-point/NE-45100080.json,EGGLESTON BN AT EGGLESTON BR,54.61108,-2.018864,398879,523993,open,FRESHWATER - RIVERS,Northumberland Durham and Tees,24.971490125197956
NE-45100081,https://environment.data.gov.uk/water-quality/id/sampling-point/NE-45100081.json,BALDER AT COTHERSTONE ROAD BRIDGE,54.575467,-1.987275,400920,520030,open,FRESHWATER - RIVERS,Northumberland Durham and Tees,29.3224601192734
NE-45100082,https://environment.data.gov.uk/water-quality/id/sampling-point/NE-45100082.json,GRETA AT GILMONBY BR (U/S BOWES STW),54.514267,-2.0083,399560,513220,open,FRESHWATER - RIVERS,Northumberland Durham and Tees,34.217958540621304
NE-45100087,https://environment.data.gov.uk/water-quality/id/sampling-point/NE-45100087.json,LUNE AT LUNE BRIDGE/VIADUCT(NW MICKLETON,54.611397,-2.065143,395890,524030,open,FRESHWATER - RIVERS,Northumberland Durham and Tees,23.11752847009803
NE-45100099,https://environment.data.gov.uk/water-quality/id/sampling-point/NE-45100099.json,GRASSHOLME RES - OUTFLOW NORTH (WFD),54.601139,-2.085172,394595,522890,open,FRESHWATER - LAKES/PONDS/RESERVOIRS,Northumberland Durham and Tees,23.375329240071096
NE-45100102,https://environment.data.gov.uk/water-quality/id/sampling-point/NE-45100102.json,SELSET RESERVOIR AT OVERFLOW,54.589058,-2.129481,391730,521550,open,FRESHWATER - LAKES/PONDS/RESERVOIRS,Northumberland Durham and Tees,23.279868949644964
NE-45100103,https://environment.data.gov.uk/water-quality/id/sampling-point/NE-45100103.json,LUNE HEAD BECK AT B6276,54.580858,-2.208823,386600,520650,closed,FRESHWATER - RIVERS,Northumberland Durham and Tees,22.683655807807554
NE-45100109,https://environment.data.gov.uk/water-quality/id/sampling-point/NE-45100109.json,BALDERHEAD RESERVOIR DAMWALL NORTH,54.563013,-2.112851,392800,518650,open,FRESHWATER - LAKES/PONDS/RESERVOIRS,Northumberland Durham and Tees,26.36475446217776
NE-45100151,https://environment.data.gov.uk/water-quality/id/sampling-point/NE-45100151.json,TEES AT BROKEN WAY (SLOPING WALL),54.634196,-2.113761,392754,526571,open,FRESHWATER - RIVERS,Northumberland Durham and Tees,19.277829417973802
NE-45200010,https://environment.data.gov.uk/water-quality/id/sampling-point/NE-45200010.json,TEES AT BROKEN SCAR (JUST U/S WEIR),54.518338,-1.601469,425896,513746,open,FRESHWATER - RIVERS,Northumberland Durham and Tees,52.119106630443795
NE-45200022,https://environment.data.gov.uk/water-quality/id/sampling-point/NE-45200022.json,WINSTON STW-FLOWS LT OR EQUAL TO 2.3L/S,54.544353,-1.780153,414320,516590,open,SEWAGE DISCHARGES - FINAL/TREATED EFFLUENT - WATER COMPANY,Northumberland Durham and Tees,41.17651972044903
NE-45200028,https://environment.data.gov.uk/water-quality/id/sampling-point/NE-45200028.json,BARNARD CASTLE STW SECONDARY TREATED EFF,54.534364,-1.9094,405960,515460,open,SEWAGE DISCHARGES - FINAL/TREATED EFFLUENT - WATER COMPANY,Northumberland Durham and Tees,36.04086637837825
NE-45200031,https://environment.data.gov.uk/water-quality/id/sampling-point/NE-45200031.json,SLEIGHTHOLME BECK U/S GRETA,54.510224,-2.044378,397224,512771,open,FRESHWATER - RIVERS,Northumberland Durham and Tees,33.53379331737156
NE-45200038,https://environment.data.gov.uk/water-quality/id/sampling-point/NE-45200038.json,CLOW BECK AT MONK END FARM,54.484739,-1.568085,428080,510020,open,FRESHWATER - RIVERS,Northumberland Durham and Tees,56.04113139181981
NE-45200045,https://environment.data.gov.uk/water-quality/id/sampling-point/NE-45200045.json,ALDBROUGH STW,54.492996,-1.680389,420800,510900,open,SEWAGE DISCHARGES - FINAL/TREATED EFFLUENT - WATER COMPANY,Northumberland Durham and Tees,49.78058187530001
NE-45200058,https://environment.data.gov.uk/water-quality/id/sampling-point/NE-45200058.json,BARTON STW,54.47627,-1.644562,423130,509050,open,SEWAGE DISCHARGES - FINAL/TREATED EFFLUENT - WATER COMPANY,Northumberland Durham and Tees,52.7484617177511
NE-45200062,https://environment.data.gov.uk/water-quality/id/sampling-point/NE-45200062.json,MELSONBY STW,54.469282,-1.684739,420530,508260,open,SEWAGE DISCHARGES - FINAL/TREATED EFFLUENT - WATER COMPANY,Northumberland Durham and Tees,51.32145909125808
NE-45200068,https://environment.data.gov.uk/water-quality/id/sampling-point/NE-45200068.json,EPPLEBY STW,54.512688,-1.721011,418160,513080,open,SEWAGE DISCHARGES - FINAL/TREATED EFFLUENT - WATER COMPANY,Northumberland Durham and Tees,46.364029224536715
NE-45200074,https://environment.data.gov.uk/water-quality/id/sampling-point/NE-45200074.json,ALDBROUGH BECK AT B6275,54.488673,-1.670435,421447,510422,open,FRESHWATER - RIVERS,Northumberland Durham and Tees,50.581753668009874
NE-45200076,https://environment.data.gov.uk/water-quality/id/sampling-point/NE-45200076.json,DUNHOUSE QUARRY,54.573178,-1.82068,411690,519790,open,TRADE DISCHARGES - SITE DRAINAGE,Northumberland Durham and Tees,37.12226497505491
NE-45200114,https://environment.data.gov.uk/water-quality/id/sampling-point/NE-45200114.json,STAINDROP STW,54.573293,-1.78108,414250,519810,open,SEWAGE DISCHARGES - FINAL/TREATED EFFLUENT - WATER COMPANY,Northumberland Durham and Tees,39.13583335649441
NE-45200118,https://environment.data.gov.uk/water-quality/id/sampling-point/NE-45200118.json,BOWES STW,54.514357,-2.004748,399790,513230,open,SEWAGE DISCHARGES - FINAL/TREATED EFFLUENT - WATER COMPANY,Northumberland Durham and Tees,34.32306429137577
NE-45200127,https://environment.data.gov.uk/water-quality/id/sampling-point/NE-45200127.json,STAINTON IN TEESDALE STW-FLOWS TO 4.9L/S,54.553318,-1.899154,406620,517570,open,SEWAGE DISCHARGES - FINAL/TREATED EFFLUENT - WATER COMPANY,Northumberland Durham and Tees,34.905594273167665
NE-45200136,https://environment.data.gov.uk/water-quality/id/sampling-point/NE-45200136.json,SCUR BECK AT B6277 RD BR D/S LARTINGTON,54.556009,-1.97839,401495,517865,open,FRESHWATER - RIVERS,Northumberland Durham and Tees,31.385604856873783
NE-45200150,https://environment.data.gov.uk/water-quality/id/sampling-point/NE-45200150.json,DEEPDALE BECK AT B6277,54.545072,-1.931018,404560,516650,open,FRESHWATER - RIVERS,Northumberland Durham and Tees,34.232844293153974
NE-45200152,https://environment.data.gov.uk/water-quality/id/sampling-point/NE-45200152.json,NWL BROKEN SCAR CENTRATE,54.520008,-1.606334,425580,513930,open,TRADE DISCHARGES - PROCESS EFFLUENT - WATER COMPANY (WTW),Northumberland Durham and Tees,51.75513858458517
NE-45200186,https://environment.data.gov.uk/water-quality/id/sampling-point/NE-45200186.json,LANGLEY BECK AT A67,54.552995,-1.759049,415682,517556,open,FRESHWATER - RIVERS,Northumberland Durham and Tees,41.63134370329821
NE-45200187,https://environment.data.gov.uk/water-quality/id/sampling-point/NE-45200187.json,TEES AT GAINFORD,54.543476,-1.744915,416600,516500,open,FRESHWATER - RIVERS,Northumberland Durham and Tees,43.00146898502786
NE-45200189,https://environment.data.gov.uk/water-quality/id/sampling-point/NE-45200189.json,AD HOC SAMPLES IN AREA 252,49.891925,-0.609124,500000,3,open,MISCELLANEOUS ENVIRONMENT - UNSPECIFIED,Northumberland Durham and Tees,555.2738492723366
NE-45200208,https://environment.data.gov.uk/water-quality/id/sampling-point/NE-45200208.json,GAINFORD STW (NEW),54.542091,-1.728076,417690,516350,open,SEWAGE DISCHARGES - FINAL/TREATED EFFLUENT - WATER COMPANY,Northumberland Durham and Tees,43.95350060663061
NE-45200214,https://environment.data.gov.uk/water-quality/id/sampling-point/NE-45200214.json,NWL LARTINGTON FISH FARM - INLET,54.558391,-1.984342,401110,518130,open,FRESHWATER - COMPARATIVE INLET POINTS,Northumberland Durham and Tees,30.943895468315713
NE-45200217,https://environment.data.gov.uk/water-quality/id/sampling-point/NE-45200217.json,BARNARD CASTLE STW CRUDE INLET,54.535353,-1.91048,405890,515570,open,SEWAGE - CRUDE TO FURTHER TREATMENT - WATER COMPANY,Northumberland Durham and Tees,35.91188443853417
NE-45200222,https://environment.data.gov.uk/water-quality/id/sampling-point/NE-45200222.json,"HANSON AGGREGATES LTD, FORCETT QUARRY",54.492099,-1.758666,415730,510780,open,TRADE DISCHARGES - MINERAL WORKINGS,Northumberland Durham and Tees,46.11397493009836
NE-45200223,https://environment.data.gov.uk/water-quality/id/sampling-point/NE-45200223.json,LARTINGTON WTW - MAIN DISCHARGE-POINT A,54.558931,-1.984033,401130,518190,open,TRADE DISCHARGES - PROCESS EFFLUENT - WATER COMPANY (WTW),Northumberland Durham and Tees,30.907574684853362
NE-45200225,https://environment.data.gov.uk/water-quality/id/sampling-point/NE-45200225.json,LARTINGTON WTW - FISH FARM EFFLUENT,54.557448,-1.983724,401150,518025,open,AGRICULTURE - FISH FARMING - WATER COMPANY,Northumberland Durham and Tees,31.05187226671514
NE-452F0204,https://environment.data.gov.uk/water-quality/id/sampling-point/NE-452F0204.json,ULNABY HALL 25-2-43,54.547144,-1.648569,422831,516935,open,GROUNDWATER - BOREHOLE,Northumberland Durham and Tees,47.81063748159368
NE-452F0205,https://environment.data.gov.uk/water-quality/id/sampling-point/NE-452F0205.json,BOREHOLE 25-2-48 JOLBY NURSERY,54.484704,-1.610995,425300,510000,open,GROUNDWATER - BOREHOLE,Northumberland Durham and Tees,53.83630509897236
NE-452F0206,https://environment.data.gov.uk/water-quality/id/sampling-point/NE-452F0206.json,STAPLETON QUARRY 25-2-49,54.501332,-1.589883,426657,511858,open,GROUNDWATER - BOREHOLE,Northumberland Durham and Tees,53.81750025150691
NE-452F0207,https://environment.data.gov.uk/water-quality/id/sampling-point/NE-452F0207.json,BOREHOLE 25-2-50 JOLBY GRANGE,54.489188,-1.607865,425500,510500,closed,GROUNDWATER - BOREHOLE,Northumberland Durham and Tees,53.690327247211385
NE-45300029,https://environment.data.gov.uk/water-quality/id/sampling-point/NE-45300029.json,SKERNE AT HURWORTH PLACE BRIDGE,54.486626,-1.555716,428880,510235,open,FRESHWATER - RIVERS,Northumberland Durham and Tees,56.56360961776902
NE-45300032,https://environment.data.gov.uk/water-quality/id/sampling-point/NE-45300032.json,SKERNE AT SOUTH PARK DARLINGTON,54.511096,-1.562787,428405,512955,open,FRESHWATER - RIVERS,Northumberland Durham and Tees,54.63862309011024
NE-45300033,https://environment.data.gov.uk/water-quality/id/sampling-point/NE-45300033.json,SKERNE AT JOHN STREET DARLINGTON,54.532767,-1.55129,429134,515371,open,FRESHWATER - RIVERS,Northumberland Durham and Tees,53.973340945075044
NE-45300043,https://environment.data.gov.uk/water-quality/id/sampling-point/NE-45300043.json,SKERNE AT BRADBURY BRIDGE,54.650616,-1.508521,431810,528503,open,FRESHWATER - RIVERS,Northumberland Durham and Tees,51.13998613872565
NE-45300058,https://environment.data.gov.uk/water-quality/id/sampling-point/NE-45300058.json,WOODHAM BURN AT LOW COPELAW,54.629954,-1.540277,429776,526190,open,FRESHWATER - RIVERS,Northumberland Durham and Tees,49.92795701898956
NE-45300061,https://environment.data.gov.uk/water-quality/id/sampling-point/NE-45300061.json,MAINSFORTH STELL U/S BISHOP MHAM STW AT,54.666754,-1.494884,432677,530305,open,FRESHWATER - RIVERS,Northumberland Durham and Tees,51.496662160874656
NE-45300081,https://environment.data.gov.uk/water-quality/id/sampling-point/NE-45300081.json,STRESSHOLME (DARLINGTON) STW,54.496378,-1.556074,428850,511320,open,SEWAGE DISCHARGES - FINAL/TREATED EFFLUENT - WATER COMPANY,Northumberland Durham and Tees,55.91831286931638
NE-45300083,https://environment.data.gov.uk/water-quality/id/sampling-point/NE-45300083.json,BRADBURY STW,54.649684,-1.507138,431900,528400,open,SEWAGE DISCHARGES - FINAL/TREATED EFFLUENT - WATER COMPANY,Northumberland Durham and Tees,51.25524105468307
NE-45300087,https://environment.data.gov.uk/water-quality/id/sampling-point/NE-45300087.json,FISHBURN STW,54.679813,-1.449854,435570,531780,open,SEWAGE DISCHARGES - FINAL/TREATED EFFLUENT - WATER COMPANY,Northumberland Durham and Tees,53.97142988092024
NE-45300094,https://environment.data.gov.uk/water-quality/id/sampling-point/NE-45300094.json,TRIMDON VILLAGE STW,54.70276,-1.417887,437610,534350,open,SEWAGE DISCHARGES - FINAL/TREATED EFFLUENT - WATER COMPANY,Northumberland Durham and Tees,55.505043886916994
NE-45300096,https://environment.data.gov.uk/water-quality/id/sampling-point/NE-45300096.json,SADBERGE STW (FLOWS BELOW 4.79 L/S),54.549977,-1.47541,434030,517320,open,SEWAGE DISCHARGES - FINAL/TREATED EFFLUENT - WATER COMPANY,Northumberland Durham and Tees,57.32342662285027
NE-45300102,https://environment.data.gov.uk/water-quality/id/sampling-point/NE-45300102.json,AYCLIFFE STW NORTH,54.603794,-1.562198,428379,523270,open,SEWAGE DISCHARGES - FINAL/TREATED EFFLUENT - WATER COMPANY,Northumberland Durham and Tees,49.702178672276865
NE-45300114,https://environment.data.gov.uk/water-quality/id/sampling-point/NE-45300114.json,WINDLESTONE STW,54.653448,-1.55049,429100,528800,open,SEWAGE DISCHARGES - FINAL/TREATED EFFLUENT - WATER COMPANY,Northumberland Durham and Tees,48.46701461998882
NE-45300118,https://environment.data.gov.uk/water-quality/id/sampling-point/NE-45300118.json,SKERNE AT BRAFFERTON BRIDGE,54.589754,-1.56159,428428,521708,open,FRESHWATER - RIVERS,Northumberland Durham and Tees,50.38605991832615
NE-45300120,https://environment.data.gov.uk/water-quality/id/sampling-point/NE-45300120.json,CHILTON LANE STW,54.6678,-1.520252,431040,530410,open,SEWAGE DISCHARGES - FINAL/TREATED EFFLUENT - WATER COMPANY,Northumberland Durham and Tees,49.88992228217059
NE-45300127,https://environment.data.gov.uk/water-quality/id/sampling-point/NE-45300127.json,BISHOP MIDDLEHAM STW,54.671189,-1.491682,432880,530800,open,SEWAGE DISCHARGES - FINAL/TREATED EFFLUENT - WATER COMPANY,Northumberland Durham and Tees,51.57363511969083
NE-45300139,https://environment.data.gov.uk/water-quality/id/sampling-point/NE-45300139.json,SKERNE AT AYCLIFFE VILL BRIDGE SED <63U,54.59776,-1.558842,428600,522600,closed,FRESHWATER - RIVERS,Northumberland Durham and Tees,50.17283448641832
NE-45300140,https://environment.data.gov.uk/water-quality/id/sampling-point/NE-45300140.json,SKERNE AT AYCLIFFE VILLAGE BRIDGE,54.597624,-1.558456,428625,522585,open,FRESHWATER - RIVERS,Northumberland Durham and Tees,50.20172166214602
NE-45300173,https://environment.data.gov.uk/water-quality/id/sampling-point/NE-45300173.json,RUSHYFORD BECK U/S TRIB FROM CHILTON,54.649859,-1.552079,429000,528400,open,FRESHWATER - RIVERS,Northumberland Durham and Tees,48.49048119136213
NE-45300174,https://environment.data.gov.uk/water-quality/id/sampling-point/NE-45300174.json,RUSHYFORD BCK 200M D/S TRIB WINDLES STW,54.650001,-1.544437,429493,528419,open,FRESHWATER - RIVERS,Northumberland Durham and Tees,48.9538157520214
NE-45300187,https://environment.data.gov.uk/water-quality/id/sampling-point/NE-45300187.json,SKERNE JUST D/S HURWORTH BURN RESERVOIR,54.692478,-1.369088,440765,533233,open,FRESHWATER - RIVERS,Northumberland Durham and Tees,58.789197233851795
NE-45300189,https://environment.data.gov.uk/water-quality/id/sampling-point/NE-45300189.json,AD HOC SAMPLES IN AREA 253,49.891925,-0.609124,500000,3,open,MISCELLANEOUS ENVIRONMENT - UNSPECIFIED,Northumberland Durham and Tees,555.2738492723366
NE-45300252,https://environment.data.gov.uk/water-quality/id/sampling-point/NE-45300252.json,DARLINGTON (STRESSHOLME) STW CRUDE INLET,54.500515,-1.556801,428800,511780,open,SEWAGE - CRUDE TO FURTHER TREATMENT - WATER COMPANY,Northumberland Durham and Tees,55.61807697387993
NE-45300253,https://environment.data.gov.uk/water-quality/id/sampling-point/NE-45300253.json,AYCLIFFE STW CRUDE INLET (NORTH INLET),54.605325,-1.56325,428310,523440,open,SEWAGE - CRUDE TO FURTHER TREATMENT - WATER COMPANY,Northumberland Durham and Tees,49.57181719386259
NE-45300254,https://environment.data.gov.uk/water-quality/id/sampling-point/NE-45300254.json,AYCLIFFE STW CRUDE INLET (SOUTH INLET),54.603625,-1.565125,428190,523250,open,SEWAGE - CRUDE TO FURTHER TREATMENT - WATER COMPANY,Northumberland Durham and Tees,49.53724096062444
NE-45300259,https://environment.data.gov.uk/water-quality/id/sampling-point/NE-45300259.json,SADBERGE STW (FLOWS ABOVE 4.79 L/S),54.549977,-1.47541,434030,517320,open,SEWAGE DISCHARGES - FINAL/TREATED EFFLUENT - WATER COMPANY,Northumberland Durham and Tees,57.32342662285027
NE-45300260,https://environment.data.gov.uk/water-quality/id/sampling-point/NE-45300260.json,TRIMDON VILLAGE STW CRUDE INLET,54.703195,-1.414933,437800,534400,open,SEWAGE - CRUDE TO FURTHER TREATMENT - WATER COMPANY,Northumberland Durham and Tees,55.684397349214294
NE-45300261,https://environment.data.gov.uk/water-quality/id/sampling-point/NE-45300261.json,FISHBURN STW CRUDE INLET,54.679085,-1.447848,435700,531700,open,SEWAGE - CRUDE TO FURTHER TREATMENT - WATER COMPANY,Northumberland Durham and Tees,54.114824441655244
NE-45300263,https://environment.data.gov.uk/water-quality/id/sampling-point/NE-45300263.json,CHILTON LANE STW CRUDE INLET,54.666907,-1.521658,430950,530310,open,SEWAGE - CRUDE TO FURTHER TREATMENT - WATER COMPANY,Northumberland Durham and Tees,49.828424307529446
NE-45300264,https://environment.data.gov.uk/water-quality/id/sampling-point/NE-45300264.json,SKERNE AT BRAFFERTON BRIDGE SEDIMENT,54.589684,-1.562024,428400,521700,closed,FRESHWATER - UNSPECIFIED,Northumberland Durham and Tees,50.36412123072813
NE-45300265,https://environment.data.gov.uk/water-quality/id/sampling-point/NE-45300265.json,SKERNE AT FISHBURN BR (D/S WINTERTON HOS,54.675908,-1.440897,436151,531350,open,FRESHWATER - RIVERS,Northumberland Durham and Tees,54.62812790423949
NE-45300266,https://environment.data.gov.uk/water-quality/id/sampling-point/NE-45300266.json,COCKER BECK @ HOLLYHURST RD DARLINGTON,54.534877,-1.565701,428200,515600,closed,FRESHWATER - RIVERS,Northumberland Durham and Tees,53.05688427500027
NE-45300267,https://environment.data.gov.uk/water-quality/id/sampling-point/NE-45300267.json,DENE BECK AT SOCKBURN,54.579248,-1.584414,426960,520530,open,FRESHWATER - RIVERS,Northumberland Durham and Tees,49.58504942771816
NE-453F0231,https://environment.data.gov.uk/water-quality/id/sampling-point/NE-453F0231.json,CHILTON EAST HOUSE 25-3-3,54.670433,-1.527044,430600,530700,open,GROUNDWATER - BOREHOLE,Northumberland Durham and Tees,49.39258493356006
NE-453F0232,https://environment.data.gov.uk/water-quality/id/sampling-point/NE-453F0232.json,BISHOP MIDDLEHAM 25-3-6,54.673896,-1.494439,432700,531100,open,GROUNDWATER - BOREHOLE,Northumberland Durham and Tees,51.32903724083294
NE-453F0233,https://environment.data.gov.uk/water-quality/id/sampling-point/NE-453F0233.json,RUSHYFORD A 25-3-21,54.652589,-1.561348,428400,528700,open,GROUNDWATER - BOREHOLE,Northumberland Durham and Tees,47.82991963833688
NE-453F0234,https://environment.data.gov.uk/water-quality/id/sampling-point/NE-453F0234.json,RUSHYFORD NE 25-3-22,54.655268,-1.55667,428700,529000,open,GROUNDWATER - BOREHOLE,Northumberland Durham and Tees,48.027219527036166
NE-453F0236,https://environment.data.gov.uk/water-quality/id/sampling-point/NE-453F0236.json,NCB 22 (HOME FARM) 25-3-25,54.644983,-1.5808,427150,527846,open,GROUNDWATER - BOREHOLE,Northumberland Durham and Tees,46.91052521898035
NE-453F0238,https://environment.data.gov.uk/water-quality/id/sampling-point/NE-453F0238.json,LOW COPELAW 1 (NRA D) 25-3-27,54.630964,-1.54609,429400,526300,open,GROUNDWATER - BOREHOLE,Northumberland Durham and Tees,49.537974618740535
NE-453F0244,https://environment.data.gov.uk/water-quality/id/sampling-point/NE-453F0244.json,BOREHOLE 25-3-47 RICKNALL LANE (NRA 10),54.598518,-1.521686,431000,522700,closed,GROUNDWATER - BOREHOLE,Northumberland Durham and Tees,52.32947482977405
NE-453F0247,https://environment.data.gov.uk/water-quality/id/sampling-point/NE-453F0247.json,SWAN HOUSE 25-3-60,54.573811,-1.611447,425216,519915,open,GROUNDWATER - BOREHOLE,Northumberland Durham and Tees,48.33146317964937
NE-453F0250,https://environment.data.gov.uk/water-quality/id/sampling-point/NE-453F0250.json,MOWDEN BRIDGE 25-3-68,54.534645,-1.597385,426150,515562,open,GROUNDWATER - BOREHOLE,Northumberland Durham and Tees,51.337230611983806
NE-453F0252,https://environment.data.gov.uk/water-quality/id/sampling-point/NE-453F0252.json,DARLINGTON GOLF COURSE 25-3-73,54.55092,-1.529973,430500,517400,open,GROUNDWATER - BOREHOLE,Northumberland Durham and Tees,54.161359550376055
NE-453F0253,https://environment.data.gov.uk/water-quality/id/sampling-point/NE-453F0253.json,KETTON HALL (NRA 26) 25-3-76,54.568056,-1.546,429451,519300,open,GROUNDWATER - BOREHOLE,Northumberland Durham and Tees,52.35604079556389
NE-453F0256,https://environment.data.gov.uk/water-quality/id/sampling-point/NE-453F0256.json,ARCHDEACON NEWTON 25-3-83,54.553624,-1.610525,425288,517669,open,GROUNDWATER - BOREHOLE,Northumberland Durham and Tees,49.50374759698501
NE-453F0257,https://environment.data.gov.uk/water-quality/id/sampling-point/NE-453F0257.json,BOREHOLE 25-3-96 BLACKWELL GOLF COURSE,54.510635,-1.572136,427800,512900,closed,GROUNDWATER - BOREHOLE,Northumberland Durham and Tees,54.16617680492694
NE-453F0261,https://environment.data.gov.uk/water-quality/id/sampling-point/NE-453F0261.json,BOREHOLE 25-3-340 SHILDON NATURE RESERVE,54.62134,-1.622083,424500,525200,closed,GROUNDWATER - BOREHOLE,Northumberland Durham and Tees,45.38760314356084
NE-453F0274,https://environment.data.gov.uk/water-quality/id/sampling-point/NE-453F0274.json,GREAT ISLE (NRA 6) 25-3-29,54.636773,-1.537505,429950,526950,open,GROUNDWATER - BOREHOLE,Northumberland Durham and Tees,49.841787720748435
NE-453F0277,https://environment.data.gov.uk/water-quality/id/sampling-point/NE-453F0277.json,LEA HALL (NRA J) 25-3-46,54.598759,-1.514563,431460,522730,open,GROUNDWATER - BOREHOLE,Northumberland Durham and Tees,52.741042189967004
NE-453F0280,https://environment.data.gov.uk/water-quality/id/sampling-point/NE-453F0280.json,"NORTH FARM, WALWORTH 25-3-62",54.565788,-1.641326,423289,519012,open,GROUNDWATER - BOREHOLE,Northumberland Durham and Tees,47.10488417577573
NE-453F0283,https://environment.data.gov.uk/water-quality/id/sampling-point/NE-453F0283.json,NEWTON KETTON (NRA G) 25-3-78,54.580255,-1.516794,431330,520670,open,GROUNDWATER - BOREHOLE,Northumberland Durham and Tees,53.44757870831782
NE-453F0285,https://environment.data.gov.uk/water-quality/id/sampling-point/NE-453F0285.json,FOUMARTS LANE 25-3-330,54.666895,-1.494325,432713,530321,open,GROUNDWATER - BOREHOLE,Northumberland Durham and Tees,51.52747181375279
NE-453F0288,https://environment.data.gov.uk/water-quality/id/sampling-point/NE-453F0288.json,WEST HOUSE 25-3-333,54.689492,-1.463995,434650,532850,open,GROUNDWATER - BOREHOLE,Northumberland Durham and Tees,52.85898221873034
NE-453F0292,https://environment.data.gov.uk/water-quality/id/sampling-point/NE-453F0292.json,HOME FARM (WETERTON FM) 25-3-337,54.670969,-1.441756,436100,530800,open,GROUNDWATER - BOREHOLE,Northumberland Durham and Tees,54.69830462595323
NE-453F0294,https://environment.data.gov.uk/water-quality/id/sampling-point/NE-453F0294.json,HUTTON VILLA 25-3-339,54.651126,-1.490754,432956,528568,open,GROUNDWATER - BOREHOLE,Northumberland Durham and Tees,52.21880805972028
NE-45400001,https://environment.data.gov.uk/water-quality/id/sampling-point/NE-45400001.json,WILTON COMPLEX MAIN EFFLUENT COMPOSITE,54.608941,-1.132956,456100,524100,open,TRADE DISCHARGES - PROCESS EFFLUENT - NOT WATER COMPANY,Northumberland Durham and Tees,75.6578128088748
NE-45400004,https://environment.data.gov.uk/water-quality/id/sampling-point/NE-45400004.json,TIOXIDE LTD-COMPOSITE -IPC AUTHORISATION,54.633588,-1.188203,452500,526800,open,TRADE DISCHARGES - UNSPECIFIED,Northumberland Durham and Tees,71.52929328794673
NE-45400013,https://environment.data.gov.uk/water-quality/id/sampling-point/NE-45400013.json,TEES AT LOW WORSALL,54.486299,-1.397194,439150,510275,open,FRESHWATER - RIVERS,Northumberland Durham and Tees,65.16321224097675
NE-45400018,https://environment.data.gov.uk/water-quality/id/sampling-point/NE-45400018.json,TEES AT OVER DINSDALE,54.496496,-1.467233,434604,511373,open,FRESHWATER - RIVERS,Northumberland Durham and Tees,60.70660812136103
NE-45400023,https://environment.data.gov.uk/water-quality/id/sampling-point/NE-45400023.json,TEES AT LOW HAIL BRIDGE,54.485282,-1.521464,431100,510100,closed,FRESHWATER - RIVERS,Northumberland Durham and Tees,58.45833574743018
NE-45400034,https://environment.data.gov.uk/water-quality/id/sampling-point/NE-45400034.json,WILTON COMPLEX MAIN EFFLUENT,54.604045,-1.112192,457448,523572,open,TRADE DISCHARGES - PROCESS EFFLUENT - NOT WATER COMPANY,Northumberland Durham and Tees,77.09114184546118
NE-45400037,https://environment.data.gov.uk/water-quality/id/sampling-point/NE-45400037.json,LOW WORSALL STW (FLOWS UP TO 1.61 L/S),54.48545,-1.398132,439090,510180,open,SEWAGE DISCHARGES - FINAL/TREATED EFFLUENT - WATER COMPANY,Northumberland Durham and Tees,65.15923715384206
NE-45400043,https://environment.data.gov.uk/water-quality/id/sampling-point/NE-45400043.json,MIDDLETON ST GEORGE STW (ONE ROW),54.501086,-1.454573,435420,511890,closed,SEWAGE DISCHARGES - FINAL/TREATED EFFLUENT - WATER COMPANY,Northumberland Durham and Tees,61.13837801546419
NE-45400070,https://environment.data.gov.uk/water-quality/id/sampling-point/NE-45400070.json,BILLINGHAM BECK AT BILLINGHAM BOTTOMS,54.594666,-1.297394,445495,522393,open,FRESHWATER - RIVERS,Northumberland Durham and Tees,65.98485262340756
NE-45400076,https://environment.data.gov.uk/water-quality/id/sampling-point/NE-45400076.json,WHITTON BECK AT WHITTON,54.593771,-1.407355,438391,522228,open,FRESHWATER - RIVERS,Northumberland Durham and Tees,59.354496798785
NE-45400077,https://environment.data.gov.uk/water-quality/id/sampling-point/NE-45400077.json,GREATHAM STW,54.637505,-1.237704,449300,527200,open,SEWAGE DISCHARGES - FINAL/TREATED EFFLUENT - WATER COMPANY,Northumberland Durham and Tees,68.33198491826694
NE-45400081,https://environment.data.gov.uk/water-quality/id/sampling-point/NE-45400081.json,LEVEN AT LEVEN BRIDGE,54.502081,-1.31461,444483,512080,open,FRESHWATER - RIVERS,Northumberland Durham and Tees,68.98679720830427
NE-45400090,https://environment.data.gov.uk/water-quality/id/sampling-point/NE-45400090.json,CORUS SOUTH TEESIDE C3,54.60197,-1.164064,454100,523300,closed,TRADE DISCHARGES - UNSPECIFIED,Northumberland Durham and Tees,73.93746999403699
NE-45400091,https://environment.data.gov.uk/water-quality/id/sampling-point/NE-45400091.json,LEVEN AT BENSE BRIDGE,54.462412,-1.199153,452010,507745,open,FRESHWATER - RIVERS,Northumberland Durham and Tees,77.63851201766596
NE-45400092,https://environment.data.gov.uk/water-quality/id/sampling-point/NE-45400092.json,GRAYTHORP STW,54.637245,-1.197426,451900,527200,open,SEWAGE DISCHARGES - FINAL/TREATED EFFLUENT - WATER COMPANY,Northumberland Durham and Tees,70.85659013207209
NE-45400105,https://environment.data.gov.uk/water-quality/id/sampling-point/NE-45400105.json,RTO1 - SPOT SAMPLE,54.589995,-1.257161,448100,521900,open,TRADE DISCHARGES - PROCESS EFFLUENT - NOT WATER COMPANY,Northumberland Durham and Tees,68.60698337441438
NE-45400109,https://environment.data.gov.uk/water-quality/id/sampling-point/NE-45400109.json,CARLTON REDMARSHALL STW,54.593503,-1.404124,438600,522200,open,SEWAGE DISCHARGES - FINAL/TREATED EFFLUENT - WATER COMPANY,Northumberland Durham and Tees,59.559557937951865
NE-45400115,https://environment.data.gov.uk/water-quality/id/sampling-point/NE-45400115.json,BISHOPTON STW,54.587308,-1.443054,436090,521490,open,SEWAGE DISCHARGES - FINAL/TREATED EFFLUENT - WATER COMPANY,Northumberland Durham and Tees,57.482570070752544
NE-45400119,https://environment.data.gov.uk/water-quality/id/sampling-point/NE-45400119.json,SEDGEFIELD STW,54.645454,-1.443345,436020,527960,open,SEWAGE DISCHARGES - FINAL/TREATED EFFLUENT - WATER COMPANY,Northumberland Durham and Tees,55.32323075981481
NE-45400152,https://environment.data.gov.uk/water-quality/id/sampling-point/NE-45400152.json,HUTTON RUDBY STW,54.455528,-1.283659,446540,506920,open,SEWAGE DISCHARGES - FINAL/TREATED EFFLUENT - WATER COMPANY,Northumberland Durham and Tees,73.22313693266794
NE-45400155,https://environment.data.gov.uk/water-quality/id/sampling-point/NE-45400155.json,GREAT AYTON STW - NEW,54.479968,-1.157293,454700,509730,open,SEWAGE DISCHARGES - FINAL/TREATED EFFLUENT - WATER COMPANY,Northumberland Durham and Tees,79.18455479165887
NE-45400166,https://environment.data.gov.uk/water-quality/id/sampling-point/NE-45400166.json,BILLINGHAM COMPLEX BB09-IPC AUTHORISATN,54.579278,-1.268186,447400,520700,open,TRADE DISCHARGES - PROCESS EFFLUENT - NOT WATER COMPANY,Northumberland Durham and Tees,68.32482949398134
NE-45400169,https://environment.data.gov.uk/water-quality/id/sampling-point/NE-45400169.json,SWAINBY STW,54.418388,-1.26489,447800,502800,open,SEWAGE DISCHARGES - FINAL/TREATED EFFLUENT - WATER COMPANY,Northumberland Durham and Tees,76.4013410827034
NE-45400177,https://environment.data.gov.uk/water-quality/id/sampling-point/NE-45400177.json,CARLTON-IN-CLEVELAND STW,54.4377,-1.220141,450680,504980,open,SEWAGE DISCHARGES - FINAL/TREATED EFFLUENT - WATER COMPANY,Northumberland Durham and Tees,77.77104405985064
NE-45400178,https://environment.data.gov.uk/water-quality/id/sampling-point/NE-45400178.json,BILLINGHAM COMPLEX BB06-IPC AUTHORISATN,54.581121,-1.275889,446900,520900,open,TRADE DISCHARGES - PROCESS EFFLUENT - NOT WATER COMPANY,Northumberland Durham and Tees,67.78842462199961
NE-45400181,https://environment.data.gov.uk/water-quality/id/sampling-point/NE-45400181.json,STOKESLEY STW,54.462428,-1.194679,452300,507750,open,SEWAGE DISCHARGES - FINAL/TREATED EFFLUENT - WATER COMPANY,Northumberland Durham and Tees,77.89396434674421
NE-45400185,https://environment.data.gov.uk/water-quality/id/sampling-point/NE-45400185.json,INGLEBY GREENHOW STW,54.45029,-1.108165,457925,506467,open,SEWAGE DISCHARGES - FINAL/TREATED EFFLUENT - WATER COMPANY,Northumberland Durham and Tees,83.48734156121009
NE-45400190,https://environment.data.gov.uk/water-quality/id/sampling-point/NE-45400190.json,BILLINGHAM COMPLEX BB03-IPC AUTHORISATN,54.582029,-1.27742,446800,521000,open,TRADE DISCHARGES - PROCESS EFFLUENT - NOT WATER COMPANY,Northumberland Durham and Tees,67.66163700121743
NE-45400193,https://environment.data.gov.uk/water-quality/id/sampling-point/NE-45400193.json,GREAT BROUGHTON STW,54.457205,-1.166707,454120,507190,open,SEWAGE DISCHARGES - FINAL/TREATED EFFLUENT - WATER COMPANY,Northumberland Durham and Tees,79.76616713820268
NE-45400216,https://environment.data.gov.uk/water-quality/id/sampling-point/NE-45400216.json,KIRKLEVINGTON STW,54.484433,-1.340882,442800,510100,open,SEWAGE DISCHARGES - FINAL/TREATED EFFLUENT - WATER COMPANY,Northumberland Durham and Tees,68.41919494723138
NE-45400260,https://environment.data.gov.uk/water-quality/id/sampling-point/NE-45400260.json,RTO1 24HR COMPOSITE,54.589995,-1.257161,448100,521900,open,TRADE DISCHARGES - PROCESS EFFLUENT - NOT WATER COMPANY,Northumberland Durham and Tees,68.60698337441438
NE-45400281,https://environment.data.gov.uk/water-quality/id/sampling-point/NE-45400281.json,ICI COWPEN TIP AT PIPE OUTLET,54.623928,-1.222469,450300,525700,closed,WASTE SITE - INDUSTRIAL LANDFILL,Northumberland Durham and Tees,69.65923140536812
NE-45400323,https://environment.data.gov.uk/water-quality/id/sampling-point/NE-45400323.json,BOC LIMITED (COOLING WATER),54.599068,-1.134714,456000,523000,open,TRADE DISCHARGES - COOLING WATER,Northumberland Durham and Tees,75.84348508556334
NE-45400396,https://environment.data.gov.uk/water-quality/id/sampling-point/NE-45400396.json,BILLINGHAM BECK 50M U/S OF R TEES CONF,54.577537,-1.267134,447470,520507,open,FRESHWATER - RIVERS,Northumberland Durham and Tees,68.45391504084517
NE-45400401,https://environment.data.gov.uk/water-quality/id/sampling-point/NE-45400401.json,SEAL SANDS EAST (INT),54.626327,-1.177505,453200,526000,closed,SALINE WATER - ESTUARINE SITES - NON BATHING/SHELLFISH,Northumberland Durham and Tees,72.39267702841362
NE-45400405,https://environment.data.gov.uk/water-quality/id/sampling-point/NE-45400405.json,SEAL SANDS CENTRE (INT),54.624571,-1.183736,452800,525800,closed,SALINE WATER - ESTUARINE SITES - NON BATHING/SHELLFISH,Northumberland Durham and Tees,72.05250015219814
NE-45400409,https://environment.data.gov.uk/water-quality/id/sampling-point/NE-45400409.json,SEAL SANDS WEST (INT),54.622857,-1.196161,452000,525600,closed,SALINE WATER - ESTUARINE SITES - NON BATHING/SHELLFISH,Northumberland Durham and Tees,71.3266064377205
NE-45400431,https://environment.data.gov.uk/water-quality/id/sampling-point/NE-45400431.json,GREATHAM CREEK TRIB (COWPEN BEWLEY TIP),54.612354,-1.239722,449200,524400,closed,FRESHWATER - RIVERS,Northumberland Durham and Tees,68.93625086346313
NE-45400453,https://environment.data.gov.uk/water-quality/id/sampling-point/NE-45400453.json,TEESSIDE AIRPORT FF INTERCEPTOR,54.512546,-1.407156,438480,513190,open,"TRADE DISCHARGES - SITE DRAINAGE (CONTAM SURFACE WATER, NOT WASTE SIT",Northumberland Durham and Tees,63.161324924942754
NE-45400474,https://environment.data.gov.uk/water-quality/id/sampling-point/NE-45400474.json,LUSTRUM BECK AT OXBRIDGE LANE,54.561603,-1.335773,443050,518690,open,FRESHWATER - RIVERS,Northumberland Durham and Tees,64.9646755863283
NE-45400488,https://environment.data.gov.uk/water-quality/id/sampling-point/NE-45400488.json,SEATON CAREW NORTH GARE (06200),54.649605,-1.164637,454000,528600,open,SALINE WATER - DESIGNATED BATHING BEACHES,Northumberland Durham and Tees,72.6089377256959
NE-45400489,https://environment.data.gov.uk/water-quality/id/sampling-point/NE-45400489.json,SEATON CAREW CENTRE (06100),54.659888,-1.180703,452950,529732,open,SALINE WATER - DESIGNATED BATHING BEACHES,Northumberland Durham and Tees,71.36434962368818
NE-45400490,https://environment.data.gov.uk/water-quality/id/sampling-point/NE-45400490.json,SEATON CAREW NORTH (06000),54.664642,-1.186018,452601,530257,open,SALINE WATER - DESIGNATED BATHING BEACHES,Northumberland Durham and Tees,70.92641834584103
NE-45400502,https://environment.data.gov.uk/water-quality/id/sampling-point/NE-45400502.json,LEVEN AT HUTTON RUDBY,54.452704,-1.274192,447157,506612,open,FRESHWATER - RIVERS,Northumberland Durham and Tees,73.91009323801248
NE-45400517,https://environment.data.gov.uk/water-quality/id/sampling-point/NE-45400517.json,BISHOPTON BECK ABOVE BISHOPTON STW,54.585541,-1.441841,436170,521294,open,FRESHWATER - RIVERS,Northumberland Durham and Tees,57.62993835855122
NE-45400522,https://environment.data.gov.uk/water-quality/id/sampling-point/NE-45400522.json,TEES JUST D/S TEES BRIDGE DALTON-ON-TEES,54.475187,-1.551211,429180,508964,open,FRESHWATER - RIVERS,Northumberland Durham and Tees,57.54914375328193
NE-45400523,https://environment.data.gov.uk/water-quality/id/sampling-point/NE-45400523.json,TEES AT YARM ROAD BRIDGE,54.512059,-1.35593,441797,513165,open,FRESHWATER - RIVERS,Northumberland Durham and Tees,66.10721459511926
NE-45400549,https://environment.data.gov.uk/water-quality/id/sampling-point/NE-45400549.json,LEVEN AT MIDDLETON WOOD,54.477679,-1.298474,445555,509375,open,FRESHWATER - RIVERS,Northumberland Durham and Tees,71.17946673789709
NE-45400550,https://environment.data.gov.uk/water-quality/id/sampling-point/NE-45400550.json,SALTERGILL BECK AT B1264,54.482661,-1.385038,439941,509877,open,FRESHWATER - RIVERS,Northumberland Durham and Tees,66.0450146410002
NE-45400552,https://environment.data.gov.uk/water-quality/id/sampling-point/NE-45400552.json,STAINSBY BECK AT A19,54.545342,-1.278609,446765,516917,open,FRESHWATER - RIVERS,Northumberland Durham and Tees,69.06292168312217
NE-45400566,https://environment.data.gov.uk/water-quality/id/sampling-point/NE-45400566.json,SHOTTON BECK AT SHOTTON FARM,54.621589,-1.430677,436859,525311,open,FRESHWATER - RIVERS,Northumberland Durham and Tees,56.894749264869425
NE-45400569,https://environment.data.gov.uk/water-quality/id/sampling-point/NE-45400569.json,BRAN SANDS OUTFALL,54.608849,-1.132649,456120,524090,open,SEWAGE DISCHARGES - UNSPECIFIED - WATER COMPANY,Northumberland Durham and Tees,75.67957095886511
NE-45400584,https://environment.data.gov.uk/water-quality/id/sampling-point/NE-45400584.json,BRANS SANDS (SURFACE),54.631449,-1.138674,455700,526600,closed,SALINE WATER - ESTUARINE SITES - NON BATHING/SHELLFISH,Northumberland Durham and Tees,74.6839838299072
NE-45400588,https://environment.data.gov.uk/water-quality/id/sampling-point/NE-45400588.json,NORTH GARE 2 (SURFACE),54.636116,-1.163364,454100,527100,closed,SALINE WATER - ESTUARINE SITES - NON BATHING/SHELLFISH,Northumberland Durham and Tees,73.01814379336047
NE-45400688,https://environment.data.gov.uk/water-quality/id/sampling-point/NE-45400688.json,MBS TEES BAMLETTS BIGHT T1NMP SED <63U,54.592643,-1.249375,448600,522200,open,SALINE WATER - ESTUARINE SITES - NON BATHING/SHELLFISH,Northumberland Durham and Tees,68.99059932464984
NE-45400758,https://environment.data.gov.uk/water-quality/id/sampling-point/NE-45400758.json,MBS GREATHAM CREEK BARGE BERTH G14 SED,54.632669,-1.185123,452700,526700,closed,SALINE WATER - ESTUARINE SITES - NON BATHING/SHELLFISH,Northumberland Durham and Tees,71.74614550819184
NE-45400759,https://environment.data.gov.uk/water-quality/id/sampling-point/NE-45400759.json,MBS GREATHAM CK BARGE BERTH G14 SED <63U,54.632669,-1.185123,452700,526700,closed,SALINE WATER - ESTUARINE SITES - NON BATHING/SHELLFISH,Northumberland Durham and Tees,71.74614550819184
NE-45400814,https://environment.data.gov.uk/water-quality/id/sampling-point/NE-45400814.json,TEES AT THE GARES SED <63U,54.647678,-1.14608,455200,528400,closed,SALINE WATER - ESTUARINE SITES - NON BATHING/SHELLFISH,Northumberland Durham and Tees,73.82121238151115
NE-45400817,https://environment.data.gov.uk/water-quality/id/sampling-point/NE-45400817.json,TEES AT THE GARES (SURFACE),54.645616,-1.146743,455160,528170,open,SALINE WATER - ESTUARINE SITES - NON BATHING/SHELLFISH,Northumberland Durham and Tees,73.82791338450431
NE-45400822,https://environment.data.gov.uk/water-quality/id/sampling-point/NE-45400822.json,TEES AT REDCAR JETTY SEDIMENT <63U,54.623493,-1.157428,454500,525700,closed,SALINE WATER - ESTUARINE SITES - NON BATHING/SHELLFISH,Northumberland Durham and Tees,73.7229115116112
NE-45400826,https://environment.data.gov.uk/water-quality/id/sampling-point/NE-45400826.json,TEES AT REDCAR JETTY (SURFACE),54.623493,-1.157428,454500,525700,open,SALINE WATER - ESTUARINE SITES - NON BATHING/SHELLFISH,Northumberland Durham and Tees,73.7229115116112
NE-45400831,https://environment.data.gov.uk/water-quality/id/sampling-point/NE-45400831.json,TEES AT SMITHS DOCK SEDIMENT <63U,54.591324,-1.184401,452800,522100,closed,SALINE WATER - ESTUARINE SITES - NON BATHING/SHELLFISH,Northumberland Durham and Tees,73.0228640735712
NE-45400834,https://environment.data.gov.uk/water-quality/id/sampling-point/NE-45400834.json,TEES AT SMITHS DOCK (SURFACE),54.591324,-1.184401,452800,522100,open,SALINE WATER - ESTUARINE SITES - NON BATHING/SHELLFISH,Northumberland Durham and Tees,73.0228640735712
NE-45400842,https://environment.data.gov.uk/water-quality/id/sampling-point/NE-45400842.json,TEES AT HAVERTON HILL SHIPYARD SED <63U,54.590817,-1.244766,448900,522000,closed,SALINE WATER - ESTUARINE SITES - NON BATHING/SHELLFISH,Northumberland Durham and Tees,69.3360832124144
NE-45400845,https://environment.data.gov.uk/water-quality/id/sampling-point/NE-45400845.json,TEES AT HAVERTON HILL SHIPYARD (SURFACE),54.590817,-1.244766,448900,522000,open,SALINE WATER - ESTUARINE SITES - NON BATHING/SHELLFISH,Northumberland Durham and Tees,69.3360832124144
NE-45400860,https://environment.data.gov.uk/water-quality/id/sampling-point/NE-45400860.json,TEES AT VICTORIA BRIDGE (SURFACE),54.558837,-1.30721,444900,518400,open,FRESHWATER - RIVERS,Northumberland Durham and Tees,66.78506202557477
NE-45400892,https://environment.data.gov.uk/water-quality/id/sampling-point/NE-45400892.json,GREATHAM CREEK PHILLIPS APP SED SAMPLE,54.630724,-1.163475,454100,526500,closed,SALINE WATER - ESTUARINE SITES - NON BATHING/SHELLFISH,Northumberland Durham and Tees,73.1509556751258
NE-45400893,https://environment.data.gov.uk/water-quality/id/sampling-point/NE-45400893.json,GREATHAM CREEK PHILLIPS APP SED <63U,54.630724,-1.163475,454100,526500,closed,SALINE WATER - ESTUARINE SITES - NON BATHING/SHELLFISH,Northumberland Durham and Tees,73.1509556751258
NE-45400909,https://environment.data.gov.uk/water-quality/id/sampling-point/NE-45400909.json,GREATHAM CK SEATON SNOOK LIGHT NTH SURF,54.631708,-1.175848,453300,526600,closed,SALINE WATER - ESTUARINE SITES - NON BATHING/SHELLFISH,Northumberland Durham and Tees,72.35137907129409
NE-45400913,https://environment.data.gov.uk/water-quality/id/sampling-point/NE-45400913.json,GREATHAM CK SEATON SNOOK LGHT WHOLE SAMP,54.631708,-1.175848,453300,526600,closed,SALINE WATER - ESTUARINE SITES - NON BATHING/SHELLFISH,Northumberland Durham and Tees,72.35137907129409
NE-45400914,https://environment.data.gov.uk/water-quality/id/sampling-point/NE-45400914.json,GREATHAM CK SEATON SNOOK LIGHT SED <63U,54.631708,-1.175848,453300,526600,closed,SALINE WATER - ESTUARINE SITES - NON BATHING/SHELLFISH,Northumberland Durham and Tees,72.35137907129409
NE-45400925,https://environment.data.gov.uk/water-quality/id/sampling-point/NE-45400925.json,GREATHAM CREEK LAINGS BASIN SED SAMP,54.631781,-1.18669,452600,526600,closed,SALINE WATER - ESTUARINE SITES - NON BATHING/SHELLFISH,Northumberland Durham and Tees,71.67182583077728
NE-45400926,https://environment.data.gov.uk/water-quality/id/sampling-point/NE-45400926.json,GREATHAM CREEK LAINGS BASIN SED <63U,54.631781,-1.18669,452600,526600,closed,SALINE WATER - ESTUARINE SITES - NON BATHING/SHELLFISH,Northumberland Durham and Tees,71.67182583077728
NE-45400928,https://environment.data.gov.uk/water-quality/id/sampling-point/NE-45400928.json,GREATHAM CREEK AT LAINGS BASIN NTH SURF,54.631781,-1.18669,452600,526600,closed,SALINE WATER - ESTUARINE SITES - NON BATHING/SHELLFISH,Northumberland Durham and Tees,71.67182583077728
NE-45400943,https://environment.data.gov.uk/water-quality/id/sampling-point/NE-45400943.json,GREATHAM CREEK BTP OUTFALL SED SAMPLE,54.630903,-1.189806,452400,526500,closed,SALINE WATER - ESTUARINE SITES - NON BATHING/SHELLFISH,Northumberland Durham and Tees,71.50068863390204
NE-45400944,https://environment.data.gov.uk/water-quality/id/sampling-point/NE-45400944.json,GREATHAM CREEK BTP OUTFALL SED <63U,54.630903,-1.189806,452400,526500,closed,SALINE WATER - ESTUARINE SITES - NON BATHING/SHELLFISH,Northumberland Durham and Tees,71.50068863390204
NE-45400951,https://environment.data.gov.uk/water-quality/id/sampling-point/NE-45400951.json,GREATHAM CREEK 100M U/S BTP OUT MID SURF,54.630903,-1.189806,452400,526500,closed,SALINE WATER - ESTUARINE SITES - NON BATHING/SHELLFISH,Northumberland Durham and Tees,71.50068863390204
NE-45400959,https://environment.data.gov.uk/water-quality/id/sampling-point/NE-45400959.json,GREATHAM CREEK SEAL SANDS SED WHOLE SAMP,54.6264,-1.188346,452500,526000,closed,SALINE WATER - ESTUARINE SITES - NON BATHING/SHELLFISH,Northumberland Durham and Tees,71.71445381996156
NE-45400960,https://environment.data.gov.uk/water-quality/id/sampling-point/NE-45400960.json,GREATHAM CREEK SEAL SANDS SEDIMENT <63U,54.6264,-1.188346,452500,526000,closed,SALINE WATER - ESTUARINE SITES - NON BATHING/SHELLFISH,Northumberland Durham and Tees,71.71445381996156
NE-45400972,https://environment.data.gov.uk/water-quality/id/sampling-point/NE-45400972.json,GREATHAM CREEK TEES EST CONTROL SED SAMP,54.629772,-1.155749,454600,526400,closed,SALINE WATER - ESTUARINE SITES - NON BATHING/SHELLFISH,Northumberland Durham and Tees,73.65916303632308
NE-45400973,https://environment.data.gov.uk/water-quality/id/sampling-point/NE-45400973.json,GREATHAM CREEK TEES EST CONTROL SED <63U,54.629772,-1.155749,454600,526400,closed,SALINE WATER - ESTUARINE SITES - NON BATHING/SHELLFISH,Northumberland Durham and Tees,73.65916303632308
NE-45400984,https://environment.data.gov.uk/water-quality/id/sampling-point/NE-45400984.json,GREATHAM CREEK POWER STN INTAKE SED SAMP,54.632659,-1.183574,452800,526700,closed,SALINE WATER - ESTUARINE SITES - NON BATHING/SHELLFISH,Northumberland Durham and Tees,71.84323736670044
NE-45400985,https://environment.data.gov.uk/water-quality/id/sampling-point/NE-45400985.json,GREATHAM CREEK POWER STN INTAKE SED <63U,54.632659,-1.183574,452800,526700,closed,SALINE WATER - ESTUARINE SITES - NON BATHING/SHELLFISH,Northumberland Durham and Tees,71.84323736670044
NE-45400988,https://environment.data.gov.uk/water-quality/id/sampling-point/NE-45400988.json,GREATHAM CREEK POWER STN INTAKE NTH SURF,54.632659,-1.183574,452800,526700,closed,SALINE WATER - ESTUARINE SITES - NON BATHING/SHELLFISH,Northumberland Durham and Tees,71.84323736670044
NE-45400994,https://environment.data.gov.uk/water-quality/id/sampling-point/NE-45400994.json,"ABLE UK LTD, BILLINGHAM REACH IND ESTATE",54.589016,-1.258727,448000,521790,open,SEWAGE DISCHARGES - FINAL/TREATED EFFLUENT - NOT WATER COMPANY,Northumberland Durham and Tees,68.54598321560746
NE-45401014,https://environment.data.gov.uk/water-quality/id/sampling-point/NE-45401014.json,TEES AT THE BARRAGE (SURFACE),54.565002,-1.285454,446300,519100,open,SALINE WATER - ESTUARINE SITES - NON BATHING/SHELLFISH,Northumberland Durham and Tees,67.8353318946635
NE-45401025,https://environment.data.gov.uk/water-quality/id/sampling-point/NE-45401025.json,GREATHAM CREEK 10M FROM BTP OUTFALL SURF,54.630369,-1.190591,452350,526440,closed,SALINE WATER - ESTUARINE SITES - NON BATHING/SHELLFISH,Northumberland Durham and Tees,71.4660537702991
NE-45401029,https://environment.data.gov.uk/water-quality/id/sampling-point/NE-45401029.json,GREATHAM CREEK 50M FROM BTP OUTFALL SURF,54.63072,-1.189345,452430,526480,closed,SALINE WATER - ESTUARINE SITES - NON BATHING/SHELLFISH,Northumberland Durham and Tees,71.53440171406363
NE-45401031,https://environment.data.gov.uk/water-quality/id/sampling-point/NE-45401031.json,GREATHAM CREEK-100M FROM OUT - SURFACE,54.630804,-1.188413,452490,526490,closed,SALINE WATER - ESTUARINE SITES - NON BATHING/SHELLFISH,Northumberland Durham and Tees,71.59034999953471
NE-45401034,https://environment.data.gov.uk/water-quality/id/sampling-point/NE-45401034.json,AD HOC SAMPLES IN AREA 254,49.891925,-0.609124,500000,3,open,FRESHWATER - UNSPECIFIED,Northumberland Durham and Tees,555.2738492723366
NE-45401208,https://environment.data.gov.uk/water-quality/id/sampling-point/NE-45401208.json,TEES AT PHILLIPS BUOY MUSSEL NMMP2,54.629826,-1.163493,454100,526400,open,SALINE WATER - ESTUARINE SITES - NON BATHING/SHELLFISH,Northumberland Durham and Tees,73.17355863375172
NE-45401214,https://environment.data.gov.uk/water-quality/id/sampling-point/NE-45401214.json,BRAN SANDS CHLOR PORTRACK EFF - SPOT,54.607087,-1.1251,456610,523900,closed,SEWAGE DISCHARGES - FINAL/TREATED EFFLUENT - WATER COMPANY,Northumberland Durham and Tees,76.2000848793678
NE-45401244,https://environment.data.gov.uk/water-quality/id/sampling-point/NE-45401244.json,CARLTON IN CLEVELAND STW - FLOW > 2.4 LS,54.4377,-1.220141,450680,504980,open,SEWAGE DISCHARGES - FINAL/TREATED EFFLUENT - WATER COMPANY,Northumberland Durham and Tees,77.77104405985064
NE-45401254,https://environment.data.gov.uk/water-quality/id/sampling-point/NE-45401254.json,BRAN SANDS TREATED SEWAGE,54.608562,-1.130332,456270,524060,open,SEWAGE DISCHARGES - FINAL/TREATED EFFLUENT - WATER COMPANY,Northumberland Durham and Tees,75.83193663333991
NE-45401260,https://environment.data.gov.uk/water-quality/id/sampling-point/NE-45401260.json,TEES AT BAMLETTS BIGHT NMMP2 FUCUS,54.591763,-1.252486,448400,522100,closed,SALINE WATER - ESTUARINE SITES - NON BATHING/SHELLFISH,Northumberland Durham and Tees,68.83078689913134
NE-45401261,https://environment.data.gov.uk/water-quality/id/sampling-point/NE-45401261.json,TEES AT NO 23 BUOY NMMP2 FUCUS,54.594897,-1.181234,453000,522500,closed,SALINE WATER - ESTUARINE SITES - NON BATHING/SHELLFISH,Northumberland Durham and Tees,73.10095450663015
NE-45401273,https://environment.data.gov.uk/water-quality/id/sampling-point/NE-45401273.json,PHILLIPS BUOY NMMP2 FISH LIVER SIZE 1,54.629826,-1.163493,454100,526400,closed,SALINE WATER - ESTUARINE SITES - NON BATHING/SHELLFISH,Northumberland Durham and Tees,73.17355863375172
NE-45401274,https://environment.data.gov.uk/water-quality/id/sampling-point/NE-45401274.json,PHILLIPS BUOY NMMP2 FISH LIVER SIZE 2,54.629826,-1.163493,454100,526400,closed,SALINE WATER - ESTUARINE SITES - NON BATHING/SHELLFISH,Northumberland Durham and Tees,73.17355863375172
NE-45401288,https://environment.data.gov.uk/water-quality/id/sampling-point/NE-45401288.json,PHILLIPS BUOY NMMP2 FISH MUSCLE SIZE 1,54.629826,-1.163493,454100,526400,closed,SALINE WATER - ESTUARINE SITES - NON BATHING/SHELLFISH,Northumberland Durham and Tees,73.17355863375172
NE-45401289,https://environment.data.gov.uk/water-quality/id/sampling-point/NE-45401289.json,PHILLIPS BUOY NMMP2 FISH MUSCLE SIZE 2,54.629826,-1.163493,454100,526400,closed,SALINE WATER - ESTUARINE SITES - NON BATHING/SHELLFISH,Northumberland Durham and Tees,73.17355863375172
NE-45401299,https://environment.data.gov.uk/water-quality/id/sampling-point/NE-45401299.json,BILLINGHAM STW CRUDE INLET,54.623075,-1.258417,447980,525580,open,SEWAGE - CRUDE TO FURTHER TREATMENT - WATER COMPANY,Northumberland Durham and Tees,67.45184518167684
NE-45401300,https://environment.data.gov.uk/water-quality/id/sampling-point/NE-45401300.json,SEATON CAREW STW CRUDE INLET,54.655666,-1.183733,452760,529260,open,SEWAGE - CRUDE TO FURTHER TREATMENT - WATER COMPANY,Northumberland Durham and Tees,71.26761375216583
NE-45401301,https://environment.data.gov.uk/water-quality/id/sampling-point/NE-45401301.json,BRAN SANDS STW CRUDE INLET,54.608607,-1.123984,456680,524070,open,SEWAGE - CRUDE TO FURTHER TREATMENT - WATER COMPANY,Northumberland Durham and Tees,76.22528212921502
NE-45401341,https://environment.data.gov.uk/water-quality/id/sampling-point/NE-45401341.json,STILLINGTON BECK AT STILLINGTON BRIDGE,54.598172,-1.442736,436101,522699,open,FRESHWATER - RIVERS,Northumberland Durham and Tees,57.05201528919745
NE-45401346,https://environment.data.gov.uk/water-quality/id/sampling-point/NE-45401346.json,SEATON CHANNEL 5,54.630686,-1.189547,452417,526476,closed,FRESHWATER - UNSPECIFIED,Northumberland Durham and Tees,71.52270166812436
NE-45401347,https://environment.data.gov.uk/water-quality/id/sampling-point/NE-45401347.json,SEATON CHANNEL DOCK BOOM 6,54.632327,-1.189111,452443,526659,closed,FRESHWATER - UNSPECIFIED,Northumberland Durham and Tees,71.50599319993951
NE-45401348,https://environment.data.gov.uk/water-quality/id/sampling-point/NE-45401348.json,SEATON CHANNEL EAST OF DOCK 7,54.631884,-1.181994,452903,526615,open,SALINE WATER - ESTUARINE SITES - NON BATHING/SHELLFISH,Northumberland Durham and Tees,71.9625440453626
NE-45401349,https://environment.data.gov.uk/water-quality/id/sampling-point/NE-45401349.json,STOKESLEY STW CRUDE INLET,54.462966,-1.194514,452310,507810,open,SEWAGE - CRUDE TO FURTHER TREATMENT - WATER COMPANY,Northumberland Durham and Tees,77.8757796651421
NE-45401355,https://environment.data.gov.uk/water-quality/id/sampling-point/NE-45401355.json,HUNTSMAN PETROCHEMICALS TEESPORT COMPND,54.600173,-1.164101,454100,523100,open,TRADE DISCHARGES - SITE DRAINAGE,Northumberland Durham and Tees,73.99092032616556
NE-45401356,https://environment.data.gov.uk/water-quality/id/sampling-point/NE-45401356.json,RIVER TEES AT DABHOLME GUT CONFLUENCE,54.615892,-1.152599,454822,524858,open,SALINE WATER - ESTUARINE SITES - NON BATHING/SHELLFISH,Northumberland Durham and Tees,74.2360209785351
NE-45401357,https://environment.data.gov.uk/water-quality/id/sampling-point/NE-45401357.json,SEAL SANDS STORAGE LTD TERMINAL SITE,54.617579,-1.160028,454340,525040,open,"TRADE DISCHARGES - SITE DRAINAGE (CONTAM SURFACE WATER, NOT WASTE SIT",Northumberland Durham and Tees,73.72564358202595
NE-45401369,https://environment.data.gov.uk/water-quality/id/sampling-point/NE-45401369.json,SEDGEFIELD STW CRUDE INLET,54.645369,-1.444431,435950,527950,open,SEWAGE - CRUDE TO FURTHER TREATMENT - WATER COMPANY,Northumberland Durham and Tees,55.258783175224394
NE-45401371,https://environment.data.gov.uk/water-quality/id/sampling-point/NE-45401371.json,GREAT AYTON STW CRUDE INLET,54.479423,-1.156533,454750,509670,open,SEWAGE - CRUDE TO FURTHER TREATMENT - WATER COMPANY,Northumberland Durham and Tees,79.25497414747258
NE-45401372,https://environment.data.gov.uk/water-quality/id/sampling-point/NE-45401372.json,TEES AT DALTON ON TEES (<63U SEDIMENT),54.471903,-1.547852,429400,508600,closed,FRESHWATER - UNSPECIFIED,Northumberland Durham and Tees,57.941318987147895
NE-45401376,https://environment.data.gov.uk/water-quality/id/sampling-point/NE-45401376.json,"SIMON RIVERSIDE NORTH, BILLINGHAM",54.581751,-1.261179,447850,520980,open,TRADE DISCHARGES - SITE DRAINAGE,Northumberland Durham and Tees,68.65896097253473
NE-45401377,https://environment.data.gov.uk/water-quality/id/sampling-point/NE-45401377.json,SIMON RIVERSIDE SOUTH,54.5805,-1.262285,447780,520840,open,TRADE DISCHARGES - SITE DRAINAGE,Northumberland Durham and Tees,68.63782754386165
NE-45401379,https://environment.data.gov.uk/water-quality/id/sampling-point/NE-45401379.json,SEATON CAREW STW FINAL EFFLUENT,54.641279,-1.195952,451990,527650,open,SEWAGE DISCHARGES - FINAL/TREATED EFFLUENT - WATER COMPANY,Northumberland Durham and Tees,70.84534792505251
NE-45401380,https://environment.data.gov.uk/water-quality/id/sampling-point/NE-45401380.json,BRAN SANDS ETW (TRADE-SBCO BYPASS)(SPOT),54.608866,-1.132617,456122,524092,closed,SEWAGE DISCHARGES - FINAL/TREATED EFFLUENT - WATER COMPANY,Northumberland Durham and Tees,75.6810654336773
NE-45401382,https://environment.data.gov.uk/water-quality/id/sampling-point/NE-45401382.json,GOOSE BECK STW-FLOWS UP TO AND INC 12L/S,54.521445,-1.426339,437230,514170,open,SEWAGE DISCHARGES - FINAL/TREATED EFFLUENT - WATER COMPANY,Northumberland Durham and Tees,61.601114557192695
NE-45401383,https://environment.data.gov.uk/water-quality/id/sampling-point/NE-45401383.json,GOOSE BECK STW-FLOWS GREATER THAN 12L/S,54.521445,-1.426339,437230,514170,open,SEWAGE DISCHARGES - FINAL/TREATED EFFLUENT - WATER COMPANY,Northumberland Durham and Tees,61.601114557192695
NE-45401385,https://environment.data.gov.uk/water-quality/id/sampling-point/NE-45401385.json,SITA TEES VALLEY ENERGY FROM WASTE PLANT,54.595105,-1.255211,448220,522470,open,TRADE DISCHARGES - SITE DRAINAGE,Northumberland Durham and Tees,68.54822103133922
NE-45401386,https://environment.data.gov.uk/water-quality/id/sampling-point/NE-45401386.json,LOW WORSALL STW (FLOWS GREATER 1.61 L/S),54.48545,-1.398132,439090,510180,open,SEWAGE DISCHARGES - FINAL/TREATED EFFLUENT - WATER COMPANY,Northumberland Durham and Tees,65.15923715384206
NE-45401387,https://environment.data.gov.uk/water-quality/id/sampling-point/NE-45401387.json,CARLTON REDMARSHALL STW CRUDE INLET,54.592605,-1.404137,438600,522100,open,SEWAGE - CRUDE TO FURTHER TREATMENT - WATER COMPANY,Northumberland Durham and Tees,59.59448757411249
NE-45401416,https://environment.data.gov.uk/water-quality/id/sampling-point/NE-45401416.json,THORPE BECK @ VIEWLY HILL,54.604611,-1.325212,443687,523482,open,FRESHWATER - RIVERS,Northumberland Durham and Tees,63.934400202861355
NE-45401417,https://environment.data.gov.uk/water-quality/id/sampling-point/NE-45401417.json,KENT BECK @ KENT BRIDGE NEASHAM,54.485743,-1.502087,432355,510160,open,FRESHWATER - RIVERS,Northumberland Durham and Tees,59.46402556036389
NE-45401418,https://environment.data.gov.uk/water-quality/id/sampling-point/NE-45401418.json,KILTON BECK AT SKINNINGROVE,54.563112,-0.901252,471145,519210,open,FRESHWATER - RIVERS,Northumberland Durham and Tees,91.40783544228836
NE-45401419,https://environment.data.gov.uk/water-quality/id/sampling-point/NE-45401419.json,LEVEN AT EAST ANGROVE,54.483947,-1.149355,455209,510179,open,FRESHWATER - RIVERS,Northumberland Durham and Tees,79.4591727095154
NE-45401420,https://environment.data.gov.uk/water-quality/id/sampling-point/NE-45401420.json,LONG NEWTON STW (FROM 16/3/07),54.543508,-1.398515,439010,516640,open,SEWAGE DISCHARGES - FINAL/TREATED EFFLUENT - WATER COMPANY,Northumberland Durham and Tees,62.08849271029657
NE-45401421,https://environment.data.gov.uk/water-quality/id/sampling-point/NE-45401421.json,"WHINSTONE VIEW BISTRO, GREAT AYTON",54.500293,-1.146529,455370,512000,open,SEWAGE DISCHARGES - FINAL/TREATED EFFLUENT - NOT WATER COMPANY,Northumberland Durham and Tees,78.87309665244754
NE-45401422,https://environment.data.gov.uk/water-quality/id/sampling-point/NE-45401422.json,WFD TEES SUBTIDAL MACROBENTHIC SAMPLING,54.630471,-1.15812,454446,526476,open,SALINE WATER - ESTUARINE SITES - NON BATHING/SHELLFISH,Northumberland Durham and Tees,73.49249498946344
NE-45401425,https://environment.data.gov.uk/water-quality/id/sampling-point/NE-45401425.json,NORTH GARE SNDS-PHILIPS APP (SEINE NET),54.631792,-1.165839,453946,526617,open,SALINE WATER - COASTAL SITES - NON BATHING/SHELLFISH,Northumberland Durham and Tees,72.97503521160105
NE-45401426,https://environment.data.gov.uk/water-quality/id/sampling-point/NE-45401426.json,TEES BARRAGE (SEINE NET SITE),54.567006,-1.277856,446789,519328,open,SALINE WATER - COASTAL SITES - NON BATHING/SHELLFISH,Northumberland Durham and Tees,68.21250936697375
NE-45401434,https://environment.data.gov.uk/water-quality/id/sampling-point/NE-45401434.json,BILLINGHAM STW FINAL EFFL (TO NORTH SEA),54.624427,-1.259167,447930,525730,open,SEWAGE DISCHARGES - FINAL/TREATED EFFLUENT - WATER COMPANY,Northumberland Durham and Tees,67.36513453902042
NE-45401442,https://environment.data.gov.uk/water-quality/id/sampling-point/NE-45401442.json,NEWBURN BRIDGE SLIPWAY,54.681515,-1.198911,451748,532125,closed,SALINE WATER - NON DESIGNATED BATHING BEACHES,Northumberland Durham and Tees,69.77492862990374
NE-45401443,https://environment.data.gov.uk/water-quality/id/sampling-point/NE-45401443.json,TEES AT LOW WORSALL SEDIMENT <63U,54.485638,-1.397975,439100,510201,closed,FRESHWATER - RIVERS,Northumberland Durham and Tees,65.15728429720802
NE-45401444,https://environment.data.gov.uk/water-quality/id/sampling-point/NE-45401444.json,TEES APPRX 700M U/S LOW HAIL BRIDGE,54.483298,-1.531057,430480,509875,closed,FRESHWATER - RIVERS,Northumberland Durham and Tees,58.076048604133405
NE-45401445,https://environment.data.gov.uk/water-quality/id/sampling-point/NE-45401445.json,TERRC - EAST SIDE TRADE EFFLUENT,54.633978,-1.187343,452555,526844,closed,TRADE DISCHARGES - PROCESS EFFLUENT - NOT WATER COMPANY,Northumberland Durham and Tees,71.5727769830652
NE-454F1115,https://environment.data.gov.uk/water-quality/id/sampling-point/NE-454F1115.json,ELSTOB HILL (NRA 15) 25-4-35,54.600961,-1.461288,434900,523000,open,GROUNDWATER - BOREHOLE,Northumberland Durham and Tees,55.82611203423967
NE-454F1121,https://environment.data.gov.uk/water-quality/id/sampling-point/NE-454F1121.json,SABIC ICI PORT CLARENCE W9 BOREHOLE,54.612156,-1.208758,451200,524400,open,GROUNDWATER - BOREHOLE,Northumberland Durham and Tees,70.85845474199982
NE-454F1127,https://environment.data.gov.uk/water-quality/id/sampling-point/NE-454F1127.json,BOREHOLE 25-4-88 HOLMEFIELD,54.56009,-1.372137,440700,518500,closed,GROUNDWATER - BOREHOLE,Northumberland Durham and Tees,62.87148393867783
NE-454F1132,https://environment.data.gov.uk/water-quality/id/sampling-point/NE-454F1132.json,WATERLOO FARM BOREHOLE 25-4-98,54.459527,-1.606606,425600,507200,open,GROUNDWATER - BOREHOLE,Northumberland Durham and Tees,55.823438939094586
NE-454F1133,https://environment.data.gov.uk/water-quality/id/sampling-point/NE-454F1133.json,BOREHOLE 25-4-100 STH FM NEWTON MORRELL,54.478486,-1.634203,423800,509300,closed,GROUNDWATER - BOREHOLE,Northumberland Durham and Tees,53.10291753008873
NE-454F1174,https://environment.data.gov.uk/water-quality/id/sampling-point/NE-454F1174.json,BOREHOLE 25-4-115 HIGH GIRSBY,54.464233,-1.433773,436800,507800,open,GROUNDWATER - BOREHOLE,Northumberland Durham and Tees,64.46310741549009
NE-45500001,https://environment.data.gov.uk/water-quality/id/sampling-point/NE-45500001.json,H'POOL POWER STN MISC TRADE & SURFACE WT,54.635312,-1.177324,453200,527000,open,TRADE DISCHARGES - COOLING WATER,Northumberland Durham and Tees,72.16470031175103
NE-45500006,https://environment.data.gov.uk/water-quality/id/sampling-point/NE-45500006.json,"HARTLEPOOL 44"" PIPE MILL COMPONENT",54.63176,-1.183592,452800,526600,open,"TRADE DISCHARGES - SITE DRAINAGE (CONTAM SURFACE WATER, NOT WASTE SIT",Northumberland Durham and Tees,71.86597211674952
NE-45500011,https://environment.data.gov.uk/water-quality/id/sampling-point/NE-45500011.json,H'POOL PWR STN MAIN COOLING WATER UNIT 1,54.634884,-1.180431,453000,526950,open,TRADE DISCHARGES - COOLING WATER,Northumberland Durham and Tees,71.98138797732128
NE-45500012,https://environment.data.gov.uk/water-quality/id/sampling-point/NE-45500012.json,H'POOL PWR STN MAIN COOLING WATER UNIT 2,54.63444,-1.181215,452950,526900,open,TRADE DISCHARGES - COOLING WATER,Northumberland Durham and Tees,71.94391994499973
NE-45500041,https://environment.data.gov.uk/water-quality/id/sampling-point/NE-45500041.json,"H'POOL PWR STN ""ESSENTIAL"" COOLING WATER",54.633246,-1.177459,453194,526770,open,TRADE DISCHARGES - PROCESS EFFLUENT - NOT WATER COMPANY,Northumberland Durham and Tees,72.21012103176925
NE-45500042,https://environment.data.gov.uk/water-quality/id/sampling-point/NE-45500042.json,HARTLEPOOL POWER STN-TREATED SEWAGE EFF,54.635312,-1.177324,453200,527000,open,SEWAGE DISCHARGES - FINAL/TREATED EFFLUENT - NOT WATER COMPANY,Northumberland Durham and Tees,72.16470031175103
NE-45500109,https://environment.data.gov.uk/water-quality/id/sampling-point/NE-45500109.json,CRIMDON (05900),54.728053,-1.248708,448482,537268,open,SALINE WATER - DESIGNATED BATHING BEACHES,Northumberland Durham and Tees,65.91647400794756
NE-45500124,https://environment.data.gov.uk/water-quality/id/sampling-point/NE-45500124.json,CASTLE EDEN BECK AT A1086,54.756404,-1.305552,444790,540385,open,FRESHWATER - RIVERS,Northumberland Durham and Tees,62.04120445329673
NE-45500126,https://environment.data.gov.uk/water-quality/id/sampling-point/NE-45500126.json,"HARTLEPOOL PIPE MILL 20""",54.654389,-1.207938,451200,529100,open,TRADE DISCHARGES - PROCESS EFFLUENT - NOT WATER COMPANY,Northumberland Durham and Tees,69.7737494805759
NE-45500133,https://environment.data.gov.uk/water-quality/id/sampling-point/NE-45500133.json,AD HOC SAMPLES IN AREA 255,49.891925,-0.609124,500000,3,open,FRESHWATER - UNSPECIFIED,Northumberland Durham and Tees,555.2738492723366
NE-45500192,https://environment.data.gov.uk/water-quality/id/sampling-point/NE-45500192.json,SEA OFF SEAHAM MUSSEL NMMP2,54.747342,-1.26982,447100,539400,closed,SALINE WATER - ESTUARINE SITES - NON BATHING/SHELLFISH,Northumberland Durham and Tees,64.38985258935035
NE-45500207,https://environment.data.gov.uk/water-quality/id/sampling-point/NE-45500207.json,HORDEN STW,54.776199,-1.317805,443980,542580,open,SEWAGE DISCHARGES - FINAL/TREATED EFFLUENT - WATER COMPANY,Northumberland Durham and Tees,61.179998121165795
NE-45500209,https://environment.data.gov.uk/water-quality/id/sampling-point/NE-45500209.json,"HARDWICK MANOR HALL, BLACKHALL",54.746445,-1.300595,445120,539280,open,SEWAGE DISCHARGES - FINAL/TREATED EFFLUENT - NOT WATER COMPANY,Northumberland Durham and Tees,62.42601906498427
NE-45500238,https://environment.data.gov.uk/water-quality/id/sampling-point/NE-45500238.json,HORDEN STW CRUDE INLET,54.775845,-1.318744,443920,542540,open,SEWAGE - CRUDE TO FURTHER TREATMENT - WATER COMPANY,Northumberland Durham and Tees,61.120450285631534
NE-45500273,https://environment.data.gov.uk/water-quality/id/sampling-point/NE-45500273.json,FORMER HORDEN COLLIERY SHAFT,54.771594,-1.313996,444230,542070,open,TRADE DISCHARGES - MINERAL WORKINGS,Northumberland Durham and Tees,61.434873076708584
NE-455F0160,https://environment.data.gov.uk/water-quality/id/sampling-point/NE-455F0160.json,HART RESERVOIR 25-5-111,54.701543,-1.250361,448407,534317,open,GROUNDWATER - BOREHOLE,Northumberland Durham and Tees,66.16388575190028
NE-455F0170,https://environment.data.gov.uk/water-quality/id/sampling-point/NE-455F0170.json,CAMERONS BOREHOLE (STOCKTON ST),54.681377,-1.212066,450900,532100,open,GROUNDWATER - BOREHOLE,Northumberland Durham and Tees,68.94387192989258
NE-455F0171,https://environment.data.gov.uk/water-quality/id/sampling-point/NE-455F0171.json,CAMERONS BOREHOLE (SILVER ST),54.681377,-1.212066,450900,532100,open,GROUNDWATER - BOREHOLE,Northumberland Durham and Tees,68.94387192989258
NE-455F0172,https://environment.data.gov.uk/water-quality/id/sampling-point/NE-455F0172.json,BOREHOLE 25-5-112 H'POOL INDUSTRIAL EST,54.704958,-1.217507,450520,534720,closed,GROUNDWATER - BOREHOLE,Northumberland Durham and Tees,68.20280999044607
NE-45600010,https://environment.data.gov.uk/water-quality/id/sampling-point/NE-45600010.json,SKELTON BECK D/S SALTBURN GILL CONFL,54.585191,-0.968325,466772,521601,open,FRESHWATER - RIVERS,Northumberland Durham and Tees,86.58457994394078
NE-45600011,https://environment.data.gov.uk/water-quality/id/sampling-point/NE-45600011.json,SKINNINGROVE BECK AT SKINNINGROVE,54.570346,-0.897144,471398,520019,open,FRESHWATER - RIVERS,Northumberland Durham and Tees,91.4450088478766
NE-45600023,https://environment.data.gov.uk/water-quality/id/sampling-point/NE-45600023.json,SKELTON BECK AT TOCKETTS BRIDGE B1269,54.549249,-1.046919,461747,517530,open,FRESHWATER - RIVERS,Northumberland Durham and Tees,82.89669056630511
NE-45600044,https://environment.data.gov.uk/water-quality/id/sampling-point/NE-45600044.json,DUNSDALE STW,54.560763,-1.059749,460900,518800,closed,SEWAGE DISCHARGES - FINAL/TREATED EFFLUENT - WATER COMPANY,Northumberland Durham and Tees,81.70885022106853
NE-45600050,https://environment.data.gov.uk/water-quality/id/sampling-point/NE-45600050.json,MOORSHOLM STW - BELOW 2.35 L/S,54.524682,-0.935426,469000,514900,open,SEWAGE DISCHARGES - FINAL/TREATED EFFLUENT - WATER COMPANY,Northumberland Durham and Tees,90.58598946098225
NE-45600058,https://environment.data.gov.uk/water-quality/id/sampling-point/NE-45600058.json,MARSKE SANDS (06650),54.599967,-1.017052,463600,523200,open,SALINE WATER - DESIGNATED BATHING BEACHES,Northumberland Durham and Tees,83.1290020866886
NE-45600059,https://environment.data.gov.uk/water-quality/id/sampling-point/NE-45600059.json,SALTBURN (06700),54.586767,-0.969755,466677,521775,open,SALINE WATER - DESIGNATED BATHING BEACHES,Northumberland Durham and Tees,86.44999012190877
NE-45600061,https://environment.data.gov.uk/water-quality/id/sampling-point/NE-45600061.json,REDCAR STRAY (06600),54.605495,-1.033949,462500,523800,open,SALINE WATER - DESIGNATED BATHING BEACHES,Northumberland Durham and Tees,81.92171619493203
NE-45600062,https://environment.data.gov.uk/water-quality/id/sampling-point/NE-45600062.json,REDCAR GRANVILLE (06500),54.617323,-1.052252,461300,525100,open,SALINE WATER - DESIGNATED BATHING BEACHES,Northumberland Durham and Tees,80.46032479039337
NE-45600063,https://environment.data.gov.uk/water-quality/id/sampling-point/NE-45600063.json,REDCAR LIFEBOAT STATION (06400),54.620031,-1.060738,460748,525394,open,SALINE WATER - DESIGNATED BATHING BEACHES,Northumberland Durham and Tees,79.85860710854222
NE-45600064,https://environment.data.gov.uk/water-quality/id/sampling-point/NE-45600064.json,REDCAR COATHAM (06300),54.622043,-1.081569,459400,525600,open,SALINE WATER - DESIGNATED BATHING BEACHES,Northumberland Durham and Tees,78.50237025513677
NE-45600071,https://environment.data.gov.uk/water-quality/id/sampling-point/NE-45600071.json,MARSKE STW (TO NORTH SEA),54.608896,-1.00987,464050,524200,open,SEWAGE DISCHARGES - FINAL/TREATED EFFLUENT - WATER COMPANY,Northumberland Durham and Tees,83.33381317097476
NE-45600076,https://environment.data.gov.uk/water-quality/id/sampling-point/NE-45600076.json,SALTBURN GILL U/S SKELTON BECK CONF,54.584371,-0.968114,466787,521510,open,FRESHWATER - RIVERS,Northumberland Durham and Tees,86.6215592273864
NE-45600111,https://environment.data.gov.uk/water-quality/id/sampling-point/NE-45600111.json,AD HOC SAMPLES IN AREA 256,49.891925,-0.609124,500000,3,open,MISCELLANEOUS ENVIRONMENT - UNSPECIFIED,Northumberland Durham and Tees,555.2738492723366
NE-45600151,https://environment.data.gov.uk/water-quality/id/sampling-point/NE-45600151.json,MOORSHOLM STW - ABOVE 2.35 L/S,54.524681,-0.935272,469010,514900,open,SEWAGE DISCHARGES - FINAL/TREATED EFFLUENT - WATER COMPANY,Northumberland Durham and Tees,90.59542628531607
NE-45600155,https://environment.data.gov.uk/water-quality/id/sampling-point/NE-45600155.json,MARSKE STW CRUDE INLET,54.596469,-1.040354,462100,522790,open,SEWAGE - CRUDE TO FURTHER TREATMENT - WATER COMPANY,Northumberland Durham and Tees,81.77746433687585
